[{"name": "AFI Парк Воронцовский", "on_sale": "да", "address": "ул. Академика Челомея, 1А", "developer": "AFI Девелопмент", "status": "Строится", "year": "2026", "cls": "A", "gba": 13022.2, "gla": 9000.0, "scheme": "ДКПБВ", "volume": 6860.5, "price": 422013.1228627651, "weight": 2895221029.4, "zone": "ТТК-МКАД", "submarket": "ТТК-МКАД Юго-Запад", "biz": "Калужский", "lat": 55.663181, "lng": 37.537524}, {"name": "AFI2B Tagilskaya", "on_sale": "да", "address": "Москва, ул. Тагильская, вл. 4", "developer": "AFI Девелопмент", "status": "Строится", "year": "2026", "cls": "B+", "gba": 60740.0, "gla": 32186.0, "scheme": "ДДУ", "volume": 19157.0, "price": 310701.8562405387, "weight": 5952115460.0, "zone": "ТТК-МКАД", "submarket": "ТТК-МКАД Восток", "biz": "", "lat": 55.818103, "lng": 37.752868}, {"name": "Ahead", "on_sale": "да", "address": "Василисы Кожиной, 25/1", "developer": "Vos’hod", "status": "Строится", "year": "2025", "cls": "A", "gba": 26408.0, "gla": 10677.0, "scheme": "ДДУ", "volume": 7890.99, "price": 600470.978673145, "weight": 4738310488.0, "zone": "ТТК-МКАД", "submarket": "ТТК-МКАД Запад", "biz": "", "lat": 55.734238, "lng": 37.493326}, {"name": "Air", "on_sale": "да", "address": "Москва, ул. Ходынский бульвар, вл. 4/1", "developer": "Tekta Group", "status": "Строится", "year": "2028", "cls": "A", "gba": 141728.0, "gla": 105248.0, "scheme": "ДДУ", "volume": 16745.100000000002, "price": 598836.4990355386, "weight": 10027577060.0, "zone": "ТТК-МКАД", "submarket": "ТТК-МКАД Северо-Запад", "biz": "Ходынка", "lat": 55.789103, "lng": 37.530992}, {"name": "ASPACE Хорошевская", "on_sale": "да", "address": "Москва, Хорошёвское шоссе, вл. 39", "developer": "ASPACE Development", "status": "Строится", "year": "2027", "cls": "A", "gba": 41210.0, "gla": 23070.0, "scheme": "ДДУ", "volume": 3502.29, "price": 549930.5311667509, "weight": 1926016200.0, "zone": "ТТК-МКАД", "submarket": "ТТК-МКАД Запад", "biz": "Большой Сити", "lat": 55.777069, "lng": 37.514383}, {"name": "Aurus", "on_sale": "да", "address": "г Москва, 2-й Красногвардейский проезд", "developer": "Страна Девелопмент", "status": "Строится", "year": "2031", "cls": "A", "gba": 393264.0, "gla": 22000.0, "scheme": "ДКПБВ", "volume": 13398.0, "price": 1054858.934169279, "weight": 14133000000.0, "zone": "СК-ТТК", "submarket": "Сити (ТТК Запад)", "biz": "Сити", "lat": 55.756883, "lng": 37.535549}, {"name": "Avium", "on_sale": "да", "address": "3-я Хорошёвская улица, ЗУ 18/2", "developer": "Alias Group", "status": "Строится", "year": "2028", "cls": "A", "gba": 135000.0, "gla": 109296.0, "scheme": "ДДУ", "volume": 9043.709999999997, "price": 422022.873300891, "weight": 3816652479.5, "zone": "ТТК-МКАД", "submarket": "ТТК-МКАД Запад", "biz": "Большой Сити", "lat": 55.787862, "lng": 37.502938}, {"name": "Bell", "on_sale": "да", "address": "1-я ул. Ямского поля, вл. 12", "developer": "MR Group", "status": "Строится", "year": "2028", "cls": "A", "gba": 84790.0, "gla": 68645.984, "scheme": "ДКПБВ", "volume": 22903.269999999997, "price": 786321.6405342993, "weight": 18009336840.0, "zone": "СК-ТТК", "submarket": "СК-ТТК Север", "biz": "Белорусский", "lat": 55.779271, "lng": 37.581676}, {"name": "Dream Riva", "on_sale": "нет", "address": "просп. Андропова, 11Г", "developer": "Regions Development", "status": "Строится", "year": "2026", "cls": "A", "gba": 0.0, "gla": 22751.0, "scheme": "ДКПБВ", "volume": 0.0, "price": 0.0, "weight": 0.0, "zone": "ТТК-МКАД", "submarket": "ТТК-МКАД Юг", "biz": "Южный порт", "lat": 55.68806591073911, "lng": 37.66384028259566}, {"name": "Edel", "on_sale": "да", "address": "17-й Марьиной Рощи пр-д, вл. 9", "developer": "STENOY", "status": "Строится", "year": "2027", "cls": "A", "gba": 15255.0, "gla": 11877.0, "scheme": "ДКПБВ", "volume": 7565.17, "price": 424460.4663979791, "weight": 3211115586.58, "zone": "ТТК-МКАД", "submarket": "ТТК-МКАД Север", "biz": "Савеловский", "lat": 55.808579, "lng": 37.60885}, {"name": "Emotion", "on_sale": "да", "address": "2-й Силикатный проезд, влд. 8", "developer": "ГК Основа", "status": "Строится", "year": "2027", "cls": "A", "gba": 0.0, "gla": 9800.0, "scheme": "ДКПБВ", "volume": 1624.8000000000002, "price": 480946.45494830125, "weight": 781441800.0, "zone": "ТТК-МКАД", "submarket": "ТТК-МКАД Запад", "biz": "Большой Сити", "lat": 55.768947, "lng": 37.508652}, {"name": "Fili Centre", "on_sale": "да", "address": "Промышленный проезд, вл. 5", "developer": "ОПТ Фили Центр", "status": "Построен", "year": "2024", "cls": "A", "gba": 23602.0, "gla": 19453.0, "scheme": "ДКПБВ", "volume": 19453.0, "price": 463600.0, "weight": 9018410800.0, "zone": "ТТК-МКАД", "submarket": "ТТК-МКАД Запад", "biz": "", "lat": 55.741059, "lng": 37.509505}, {"name": "Fili residence", "on_sale": "да", "address": "Кастанаевская улица, 16с1", "developer": "ООО СЗ ФИЛИ ГАРДЕН", "status": "Строится", "year": "2025", "cls": "A", "gba": 11041.0, "gla": 8768.0, "scheme": "ДДУ", "volume": 947.2, "price": 518921.2837837838, "weight": 491522240.0, "zone": "ТТК-МКАД", "submarket": "ТТК-МКАД Запад", "biz": "", "lat": 55.739569, "lng": 37.494252}, {"name": "Frame", "on_sale": "да", "address": "улица Пресненский Вал, 27с7", "developer": "Forma (ПИК)", "status": "Строится", "year": "2028", "cls": "A", "gba": 69728.0, "gla": 49681.0, "scheme": "ДКПБВ", "volume": 15234.0, "price": 630787.742746488, "weight": 9609420472.999998, "zone": "СК-ТТК", "submarket": "СК-ТТК Север", "biz": "Белорусский", "lat": 55.774281, "lng": 37.575982}, {"name": "Geolog 2", "on_sale": "да", "address": "ул. Обручева, 23", "developer": "Hutton Development", "status": "Строится", "year": "2026", "cls": "A", "gba": 27117.0, "gla": 17718.0, "scheme": "ДДУ", "volume": 3398.3, "price": 415266.9646588, "weight": 1411201726.0, "zone": "ТТК-МКАД", "submarket": "ТТК-МКАД Юго-Запад", "biz": "Калужский", "lat": 55.657377, "lng": 37.530139}, {"name": "iCITY (Space)", "on_sale": "да", "address": "г, Москва, Пресненский р-н, проезд Шмитовский, д, 37, стр 1", "developer": "MR Group", "status": "Построен", "year": "2024", "cls": "A", "gba": 230000.0, "gla": 136000.0, "scheme": "ДКПБВ", "volume": 13487.589999999998, "price": 864221.6474551792, "weight": 11656267250.0, "zone": "ТТК-МКАД", "submarket": "Сити (ТТК Запад)", "biz": "Сити", "lat": 55.753661, "lng": 37.530786}, {"name": "Jenga", "on_sale": "да", "address": "г. Москва, Полесский пр-д, 14", "developer": "Forma (ПИК)", "status": "Строится", "year": "2028", "cls": "A", "gba": 59969.0, "gla": 48482.89600000001, "scheme": "ДКПБВ", "volume": 3048.1, "price": 392378.3586496506, "weight": 1196008475.0, "zone": "ТТК-МКАД", "submarket": "ТТК-МКАД Запад", "biz": "Большой Сити", "lat": 55.812393, "lng": 37.45964}, {"name": "Jois", "on_sale": "да", "address": "г. Москва, 3-й Силикатный проезд, 10", "developer": "MR Group", "status": "Строится", "year": "2028", "cls": "A", "gba": 118000.0, "gla": 82000.0, "scheme": "ДКПБВ", "volume": 19890.479999999992, "price": 458637.9116039434, "weight": 9122528208.0, "zone": "ТТК-МКАД", "submarket": "ТТК-МКАД Запад", "biz": "Большой Сити", "lat": 55.771687, "lng": 37.505885}, {"name": "K-city", "on_sale": "да", "address": "Бауманская, 11", "developer": "October Group", "status": "Строится", "year": "2028", "cls": "A", "gba": 59800.0, "gla": 13800.0, "scheme": "ДКПБВ", "volume": 4169.4, "price": 531695.2633472442, "weight": 2216850231.0, "zone": "СК-ТТК", "submarket": "СК-ТТК Восток", "biz": "", "lat": 55.776988, "lng": 37.678361}, {"name": "KORP. Молодежная", "on_sale": "да", "address": "г. Москва, ул. Ярцевская, ЗУ 21/1", "developer": "Аквилон", "status": "Строится", "year": "2029", "cls": "B+", "gba": null, "gla": null, "scheme": "ДКПБВ", "volume": 8064.799999999997, "price": 470561.5493254639, "weight": 3794984783.0, "zone": "ТТК-МКАД", "submarket": "ТТК-МКАД Запад", "biz": "", "lat": 55.739478, "lng": 37.412226}, {"name": "Lakes", "on_sale": "да", "address": "Москва, ул. Озёрная вл.42", "developer": "Forma (ПИК)", "status": "Строится", "year": "2025", "cls": "A", "gba": 55378.0, "gla": 42570.0, "scheme": "ДКПБВ", "volume": 1222.4, "price": 308572.52945026173, "weight": 377199060.0, "zone": "ТТК-МКАД", "submarket": "ТТК-МКАД Запад", "biz": "", "lat": 55.760322, "lng": 37.579825}, {"name": "Lakes 2", "on_sale": "да", "address": "ул. Озёрная, ЗУ 44Б", "developer": "Forma (ПИК)", "status": "Строится", "year": "2028", "cls": "A", "gba": 35013.0, "gla": 23117.0, "scheme": "ДКПБВ", "volume": 7833.199999999998, "price": 322063.13066179864, "weight": 2522784915.1000004, "zone": "ТТК-МКАД", "submarket": "ТТК-МКАД Запад", "biz": "", "lat": 55.667665, "lng": 37.440245}, {"name": "Lavin", "on_sale": "да", "address": "г. Москва, Ильменский пр-д, 13/8", "developer": "Forma (ПИК)", "status": "Строится", "year": "2028", "cls": "A", "gba": 59885.0, "gla": 48482.89600000001, "scheme": "ДКПБВ", "volume": 3025.0999999999995, "price": 316443.0481636971, "weight": 957271865.0, "zone": "ТТК-МКАД", "submarket": "ТТК-МКАД Север", "biz": "", "lat": 55.857867, "lng": 37.543192}, {"name": "Level Воронцовская", "on_sale": "да", "address": "Москва, ул. Академика Семинихина,вл. 2", "developer": "Level", "status": "Строится", "year": "2026", "cls": "A", "gba": 45770.0, "gla": 26650.0, "scheme": "ДКПБВ", "volume": 7067.899999999999, "price": 467421.09911006107, "weight": 3303685586.4, "zone": "ТТК-МКАД", "submarket": "ТТК-МКАД Юго-Запад", "biz": "Калужский", "lat": 55.660435, "lng": 37.535628}, {"name": "Level Южнопортовая", "on_sale": "да", "address": "Москва, ул. Южнопортовая, 4", "developer": "Level", "status": "Строится", "year": "2026", "cls": "B+", "gba": 0.0, "gla": 2295.0, "scheme": "ДКПБВ", "volume": 2295.9, "price": 215000.0, "weight": 493618500.0, "zone": "ТТК-МКАД", "submarket": "ТТК-МКАД Юг", "biz": "", "lat": 55.704636, "lng": 37.698196}, {"name": "Light City", "on_sale": "да", "address": "2-я Магистральная ул., д. 3, стр. 1", "developer": "АО \"ПРОСПЕКТ\"", "status": "Строится", "year": "2028", "cls": "A", "gba": 152924.0, "gla": 24790.0, "scheme": "ДКПБВ", "volume": 21215.25, "price": 414404.2884246002, "weight": 8791690580.0, "zone": "ТТК-МКАД", "submarket": "ТТК-МКАД Запад", "biz": "Большой Сити", "lat": 55.762586, "lng": 37.531092}, {"name": "LIKOVA", "on_sale": "да", "address": "г. Москва, ул. Омская, земельный участок 14/4", "developer": "Абсолют", "status": "Строится", "year": "2026", "cls": "A", "gba": 53293.0, "gla": 32138.0, "scheme": "ДКПБВ", "volume": 53293.0, "price": 168878.0, "weight": 9000015254.0, "zone": "За МКАД", "submarket": "За МКАД", "biz": "", "lat": 55.621468, "lng": 37.267601}, {"name": "Link", "on_sale": "да", "address": "г. Москва, ул. Рябиновая, 44", "developer": "MR Group", "status": "Строится", "year": "2029", "cls": "B+", "gba": 74679.0, "gla": 60460.1184, "scheme": "ДКПБВ", "volume": 24848.030000000002, "price": 379323.4230238775, "weight": 9425439795.0, "zone": "ТТК-МКАД", "submarket": "ТТК-МКАД Юго-Запад", "biz": "", "lat": 55.674545, "lng": 37.435127}, {"name": "Lunar модуль В", "on_sale": "да", "address": "Ленинский пр-кт, 38", "developer": "Hutton Development", "status": "Построен", "year": "2024", "cls": "A", "gba": 13431.0, "gla": 10874.0, "scheme": "ДКПБВ", "volume": 762.9, "price": 690723.5548564688, "weight": 526953000.0, "zone": "ТТК-МКАД", "submarket": "ТТК-МКАД Юго-Запад", "biz": "", "lat": 55.704423, "lng": 37.572207}, {"name": "Mind", "on_sale": "да", "address": "Москва, ул. Серегина, 5-7", "developer": "MR Group", "status": "Строится", "year": "2029", "cls": "A", "gba": 33289.0, "gla": 25692.0, "scheme": "ДКПБВ", "volume": 12837.08, "price": 561259.2621998149, "weight": 7204930049.6, "zone": "ТТК-МКАД", "submarket": "ТТК-МКАД Северо-Запад", "biz": "Ленинградский", "lat": 55.795987, "lng": 37.548376}, {"name": "Mount", "on_sale": "да", "address": "г. Москва, Боровское шоссе, 2", "developer": "Forma (ПИК)", "status": "Строится", "year": "2028", "cls": "A", "gba": 37254.0, "gla": 30160.838399999997, "scheme": "ДКПБВ", "volume": 4243.5, "price": 288900.90774125134, "weight": 1225951002.0, "zone": "За МКАД", "submarket": "Новая Москва", "biz": "", "lat": 55.66014, "lng": 37.407555}, {"name": "Nevsky Plaza", "on_sale": "да", "address": "Москва, ул. Выборгская, 18", "developer": "Крост", "status": "Строится", "year": "2026", "cls": "B+", "gba": 17000.0, "gla": 13158.0, "scheme": "ДДУ", "volume": 2906.8000000000006, "price": 339725.4025044722, "weight": 987513800.0, "zone": "ТТК-МКАД", "submarket": "ТТК-МКАД Северо-Запад", "biz": "Ленинградский", "lat": 55.834522, "lng": 37.49683}, {"name": "Nice Tower", "on_sale": "да", "address": "Скотопрогонная ул, 31, Москва", "developer": "Coldy", "status": "Строится", "year": "2027", "cls": "A", "gba": 35400.0, "gla": 21500.0, "scheme": "ДКПБВ", "volume": 3849.7, "price": 358086.9592955295, "weight": 1378527367.2, "zone": "СК-ТТК", "submarket": "СК-ТТК Восток", "biz": "", "lat": 55.729716, "lng": 37.694423}, {"name": "NOON", "on_sale": "да", "address": "Москва, ул. Окская, вл. 9", "developer": "Dominanta", "status": "Строится", "year": "2026", "cls": "B+", "gba": 16400.0, "gla": 13277.44, "scheme": "ДДУ", "volume": 3321.0000000000005, "price": 350697.6814212586, "weight": 1164667000.0, "zone": "ТТК-МКАД", "submarket": "ТТК-МКАД Восток", "biz": "", "lat": 55.717544, "lng": 37.774742}, {"name": "Omni Tower", "on_sale": "да", "address": "Москва, ул. Алексея Свиридова, 7", "developer": "Sense", "status": "Строится", "year": "2028", "cls": "A", "gba": 66800.0, "gla": 37950.0, "scheme": "ДКПБВ", "volume": 40862.30000000001, "price": 434697.8436529514, "weight": 17762753696.7, "zone": "ТТК-МКАД", "submarket": "ТТК-МКАД Запад", "biz": "", "lat": 55.726842, "lng": 37.454995}, {"name": "One Tower", "on_sale": "да", "address": "г. Москва, 1-ый Красногвардейский пр-д, 13", "developer": "MR Group", "status": "Строится", "year": "2030", "cls": "A", "gba": 294000.0, "gla": 65000.0, "scheme": "ДКПБВ", "volume": 44982.62000000002, "price": 922984.197007644, "weight": 41518247400.0, "zone": "СК-ТТК", "submarket": "Сити (ТТК Запад)", "biz": "Сити", "lat": 55.751492, "lng": 37.539644}, {"name": "Opus", "on_sale": "да", "address": "Дербеневская улица, 1", "developer": "ГК Пионер", "status": "Строится", "year": "2026", "cls": "A", "gba": 36500.0, "gla": 23000.0, "scheme": "ДДУ", "volume": 2750.4, "price": 664909.7985747529, "weight": 1828767910.0000002, "zone": "СК-ТТК", "submarket": "СК-ТТК Юг", "biz": "Павелецкий", "lat": 55.725821, "lng": 37.651809}, {"name": "Orbital-2", "on_sale": "да", "address": "Москва, 3-я Магистральная ул., вл. 12", "developer": "Ultima Development", "status": "Строится", "year": "2027", "cls": "A", "gba": 57967.0, "gla": 39667.0, "scheme": "ДКПБВ", "volume": 57967.0, "price": 500000.0, "weight": 28983500000.0, "zone": "ТТК-МКАД", "submarket": "ТТК-МКАД Запад", "biz": "Большой Сити", "lat": 55.763964, "lng": 37.523959}, {"name": "Plaza Botanica", "on_sale": "да", "address": "г. Москва, Ростокино р-н, ул. Леонова 1-я, д. 1", "developer": "ГК Пионер", "status": "Построен", "year": "2024", "cls": "A", "gba": 33350.0, "gla": 29500.0, "scheme": "ДДУ", "volume": 2596.1, "price": 220676.00000000003, "weight": 572896963.6, "zone": "ТТК-МКАД", "submarket": "ТТК-МКАД Север", "biz": "", "lat": 55.845031, "lng": 37.639222}, {"name": "Plaza Technopark", "on_sale": "нет", "address": "г. Москва, Даниловский р-н, Андропова пр-кт, влд 10", "developer": "ГК Пионер", "status": "Построен", "year": "2021", "cls": "A", "gba": 0.0, "gla": 24700.0, "scheme": "ДДУ", "volume": 0.0, "price": 0.0, "weight": 0.0, "zone": "ТТК-МКАД", "submarket": "ТТК-МКАД Юг", "biz": "", "lat": 55.694057, "lng": 37.66506}, {"name": "Porta Forma", "on_sale": "да", "address": "Заречная ул, 2/1", "developer": "Forma (ПИК)", "status": "Строится", "year": "2026", "cls": "A", "gba": 43337.0, "gla": 27127.0, "scheme": "ДКПБВ", "volume": 2084.6, "price": 659204.1619495347, "weight": 1374176996.0, "zone": "ТТК-МКАД", "submarket": "ТТК-МКАД Запад", "biz": "Большой Сити", "lat": 55.747221, "lng": 37.518821}, {"name": "QOOB", "on_sale": "да", "address": "Алексея Свиридовая ул., вл. 17", "developer": "Dominanta", "status": "Строится", "year": "2026", "cls": "A", "gba": 21450.0, "gla": 17245.0, "scheme": "ДДУ", "volume": 1947.5999999999997, "price": 574293.3040665436, "weight": 1118493639.0, "zone": "ТТК-МКАД", "submarket": "ТТК-МКАД Запад", "biz": "", "lat": 55.726442, "lng": 37.451638}, {"name": "Rail.A", "on_sale": "да", "address": "Переведеновский переулок, 13", "developer": "ORTIGA Development", "status": "Строится", "year": "2026", "cls": "A", "gba": 11590.0, "gla": 2518.0, "scheme": "ДДУ", "volume": 2401.6099999999997, "price": 394945.54902752745, "weight": 948505180.0, "zone": "СК-ТТК", "submarket": "СК-ТТК Восток", "biz": "", "lat": 55.781571, "lng": 37.688832}, {"name": "Set", "on_sale": "да", "address": "г. Москва, ул. Верейская, д. 29/32Б", "developer": "MR Group", "status": "Строится", "year": "2028", "cls": "A", "gba": 130873.0, "gla": 75000.0, "scheme": "ДКПБВ", "volume": 35587.01, "price": 372823.43444981746, "weight": 13267671290.0, "zone": "ТТК-МКАД", "submarket": "ТТК-МКАД Запад", "biz": "", "lat": 55.709033, "lng": 37.436086}, {"name": "Slava", "on_sale": "нет", "address": "1-я ул. Ямского Поля, 8, стр. 1", "developer": "MR Group", "status": "Строится", "year": "2025", "cls": "A", "gba": 132279.8, "gla": 101460.0, "scheme": "ДКПБВ", "volume": 0.0, "price": 0.0, "weight": 0.0, "zone": "СК-ТТК", "submarket": "СК-ТТК Север", "biz": "", "lat": 55.779317, "lng": 37.583095}, {"name": "Solo", "on_sale": "да", "address": "Москва, ул. Александра Солженицына, 27", "developer": "Glincom", "status": "Строится", "year": "2028", "cls": "A", "gba": 12900.0, "gla": 7200.0, "scheme": "ДКПБВ", "volume": 3078.27, "price": 467814.1958697581, "weight": 1440058404.7200003, "zone": "СК-ТТК", "submarket": "СК-ТТК Восток", "biz": "", "lat": 55.745199, "lng": 37.664743}, {"name": "STONE Towers. Tower A", "on_sale": "нет", "address": "г. Москва, Бумажный проезд, 19с1", "developer": "STONE", "status": "Построен", "year": "2022", "cls": "A", "gba": 13900.0, "gla": 9000.0, "scheme": "ДКПБВ", "volume": 0.0, "price": 0.0, "weight": 0.0, "zone": "СК-ТТК", "submarket": "СК-ТТК Север", "biz": "", "lat": 55.789541, "lng": 37.585734}, {"name": "STONE Towers. Tower D", "on_sale": "нет", "address": "г. Москва, Бумажный проезд, 19, стр. 4, 5", "developer": "STONE", "status": "Строится", "year": "2026", "cls": "A", "gba": 47000.0, "gla": 33000.0, "scheme": "ДКПБВ", "volume": 0.0, "price": 0.0, "weight": 0.0, "zone": "СК-ТТК", "submarket": "СК-ТТК Север", "biz": "", "lat": 55.79053, "lng": 37.585665}, {"name": "STONE Towers. Towers BC", "on_sale": "нет", "address": "г. Москва, Бумажный проезд, 19c2", "developer": "STONE", "status": "Построен", "year": "2024", "cls": "A", "gba": 65500.0, "gla": 40500.0, "scheme": "ДКПБВ", "volume": 0.0, "price": 0.0, "weight": 0.0, "zone": "СК-ТТК", "submarket": "СК-ТТК Север", "biz": "", "lat": 55.789858, "lng": 37.585881}, {"name": "STONE Белорусская", "on_sale": "нет", "address": "1-я улица Ямского Поля, вл. 30", "developer": "STONE", "status": "Строится", "year": "2027", "cls": "A", "gba": 34700.0, "gla": 22900.0, "scheme": "ДКПБВ", "volume": 0.0, "price": 0.0, "weight": 0.0, "zone": "СК-ТТК", "submarket": "СК-ТТК Север", "biz": "Белорусский", "lat": 55.784779, "lng": 37.585853}, {"name": "STONE Дмитровская", "on_sale": "да", "address": "Москва, Дмитровский проезд, вл. 1г", "developer": "STONE", "status": "Строится", "year": "2027", "cls": "A", "gba": 49000.0, "gla": 39670.4, "scheme": "ДКПБВ", "volume": 23696.899999999994, "price": 453410.4123324149, "weight": 10744421200.0, "zone": "ТТК-МКАД", "submarket": "ТТК-МКАД Север", "biz": "", "lat": 55.808399, "lng": 37.575947}, {"name": "STONE Калужская", "on_sale": "да", "address": "Москва, Старокалужское шоссе, вл. 64", "developer": "STONE", "status": "Строится", "year": "2028", "cls": "A", "gba": 83000.0, "gla": 58000.0, "scheme": "ДКПБВ", "volume": 36315.0, "price": 418363.1479652046, "weight": 15192857718.356405, "zone": "ТТК-МКАД", "submarket": "ТТК-МКАД Юго-Запад", "biz": "Калужский", "lat": 55.65887, "lng": 37.537184}, {"name": "STONE Курская", "on_sale": "да", "address": "Костомаровский пер., 11, стр. 1", "developer": "STONE", "status": "Построен", "year": "2025", "cls": "Prime", "gba": 17152.8, "gla": 10900.0, "scheme": "ДКПБВ", "volume": 17152.8, "price": 424720.0, "weight": 7285137216.0, "zone": "СК-ТТК", "submarket": "СК-ТТК Восток", "biz": "", "lat": 55.750611, "lng": 37.666791}, {"name": "STONE Ленинский", "on_sale": "да", "address": "Москва, ул. Вавилова, 11", "developer": "STONE", "status": "Строится", "year": "2026", "cls": "A", "gba": 69600.0, "gla": 41500.0, "scheme": "ДКПБВ", "volume": 389.1, "price": 610000.0, "weight": 237351000.0, "zone": "ТТК-МКАД", "submarket": "ТТК-МКАД Юго-Запад", "biz": "", "lat": 55.704072, "lng": 37.584135}, {"name": "STONE Мневники I", "on_sale": "да", "address": "Москва, ул. Нижние Мнёвники, з/у 41", "developer": "STONE", "status": "Строится", "year": "2029", "cls": "A", "gba": 33800.0, "gla": 28500.0, "scheme": "ДКПБВ", "volume": 1669.7, "price": 593509.5526142421, "weight": 990982900.0, "zone": "ТТК-МКАД", "submarket": "ТТК-МКАД Запад", "biz": "Большой Сити", "lat": 55.754038, "lng": 37.456532}, {"name": "STONE Мневники II", "on_sale": "да", "address": "Москва, ул. Нижние Мнёвники, з/у 39", "developer": "STONE", "status": "Строится", "year": "2029", "cls": "A", "gba": 54900.0, "gla": 33900.0, "scheme": "ДКПБВ", "volume": 26282.9, "price": 525989.5295610453, "weight": 13824530206.5, "zone": "ТТК-МКАД", "submarket": "ТТК-МКАД Запад", "biz": "Большой Сити", "lat": 55.754038, "lng": 37.456532}, {"name": "STONE Мневники III", "on_sale": "да", "address": "Москва, ул. Нижние Мневники, з/у 192", "developer": "STONE", "status": "Строится", "year": "2030", "cls": "A", "gba": 69000.0, "gla": 54000.0, "scheme": "ДКПБВ", "volume": 27054.0, "price": 521611.332889776, "weight": 14111673000.0, "zone": "ТТК-МКАД", "submarket": "ТТК-МКАД Запад", "biz": "Большой Сити", "lat": 55.753945, "lng": 37.456699}, {"name": "STONE Римская", "on_sale": "да", "address": "Москва, ул. Золоторожский Вал, 11А/1", "developer": "STONE", "status": "Строится", "year": "2028", "cls": "A", "gba": 70500.0, "gla": 49500.0, "scheme": "ДКПБВ", "volume": 27372.200000000004, "price": 468032.9273350333, "weight": 12811090893.6, "zone": "СК-ТТК", "submarket": "СК-ТТК Восток", "biz": "", "lat": 55.748891, "lng": 37.683733}, {"name": "STONE Савеловская", "on_sale": "да", "address": "Москва, ул. Двинцев, вл. 3", "developer": "STONE", "status": "Построен", "year": "2026", "cls": "A", "gba": 101100.0, "gla": 68300.0, "scheme": "ДКПБВ", "volume": 17682.6, "price": 547656.5041340075, "weight": 9683990900.0, "zone": "ТТК-МКАД", "submarket": "ТТК-МКАД Север", "biz": "Савеловский", "lat": 55.788054, "lng": 37.534427}, {"name": "STONE Ходынка I", "on_sale": "да", "address": "Москва, Ходынский бульвар, вл. 6/2", "developer": "STONE", "status": "Строится", "year": "2027", "cls": "A", "gba": 102700.0, "gla": 65000.0, "scheme": "ДКПБВ", "volume": 13439.099999999999, "price": 579670.439240723, "weight": 7790249000.0, "zone": "ТТК-МКАД", "submarket": "ТТК-МКАД Северо-Запад", "biz": "Ходынка", "lat": 55.788171, "lng": 37.533598}, {"name": "STONE Ходынка II", "on_sale": "да", "address": "Москва, Ходынский бульвар, 20А/2", "developer": "STONE", "status": "Строится", "year": "2028", "cls": "A", "gba": 84000.0, "gla": 53000.0, "scheme": "ДКПБВ", "volume": 25947.099999999984, "price": 556672.4443559274, "weight": 14444035580.947676, "zone": "ТТК-МКАД", "submarket": "ТТК-МКАД Северо-Запад", "biz": "Ходынка", "lat": 55.789203, "lng": 37.525082}, {"name": "STONE Ходынка III", "on_sale": "да", "address": "Москва, Ходынский бульвар, 20А/1", "developer": "STONE", "status": "Строится", "year": "2029", "cls": "Prime", "gba": 76600.0, "gla": 48000.0, "scheme": "ДКПБВ", "volume": 72293.0, "price": 430000.0, "weight": 31085990000.0, "zone": "ТТК-МКАД", "submarket": "ТТК-МКАД Северо-Запад", "biz": "Ходынка", "lat": 55.789361, "lng": 37.5236}, {"name": "STONE Ходынка IV", "on_sale": "да", "address": "Москва, Ходынский бульвар", "developer": "STONE", "status": "Строится", "year": "2032", "cls": "A", "gba": 160000.0, "gla": 129536.0, "scheme": "ДКПБВ", "volume": 12779.0, "price": 568127.0052429767, "weight": 7260095000.0, "zone": "ТТК-МКАД", "submarket": "ТТК-МКАД Северо-Запад", "biz": "Ходынка", "lat": 55.788633, "lng": 37.530055}, {"name": "Taller", "on_sale": "да", "address": "Жуков проезд, 8", "developer": "Coldy", "status": "Строится", "year": "2026", "cls": "A", "gba": 46134.0, "gla": 37500.0, "scheme": "ДДУ", "volume": 6945.57, "price": 579308.1616051671, "weight": 4023625388.0, "zone": "СК-ТТК", "submarket": "СК-ТТК Юг", "biz": "Павелецкий", "lat": 55.722005, "lng": 37.646247}, {"name": "Top Tower", "on_sale": "да", "address": "Москва, Шепелихинский тупик, 17/1", "developer": "MR Group", "status": "Строится", "year": "2029", "cls": "A", "gba": 156030.0, "gla": 96660.0, "scheme": "ДКПБВ", "volume": 61480.90000000001, "price": 807895.4839470468, "weight": 49670141459.0, "zone": "ТТК-МКАД", "submarket": "Сити (ТТК Запад)", "biz": "Сити", "lat": 55.753024, "lng": 37.529984}, {"name": "Twist", "on_sale": "да", "address": "Бутырская ул,, уч1, Москва", "developer": "Sminex-Интеко", "status": "Строится", "year": "2026", "cls": "A", "gba": 19112.0, "gla": 15382.4, "scheme": "ДКПБВ", "volume": 513.0, "price": 740157.8947368421, "weight": 379701000.0, "zone": "ТТК-МКАД", "submarket": "ТТК-МКАД Север", "biz": "Савеловский", "lat": 55.793278, "lng": 37.585449}, {"name": "Upside Tech Сколково", "on_sale": "да", "address": "г. Москва, Нобеля ул.", "developer": "Upside Development", "status": "Строится", "year": "2027", "cls": "A", "gba": 20000.0, "gla": 16192.0, "scheme": "ДКПБВ", "volume": 15787.009999999993, "price": 384156.23467078345, "weight": 6064678318.310002, "zone": "За МКАД", "submarket": "За МКАД", "biz": "", "lat": 55.682204, "lng": 37.338956}, {"name": "Upside Кунцево", "on_sale": "да", "address": "Москва, Молдавская ул., 1", "developer": "Upside Development", "status": "Построен", "year": "2025", "cls": "A", "gba": 36280.3, "gla": 23225.0, "scheme": "ДДУ", "volume": 6423.5, "price": 684255.7924385223, "weight": 4395317082.728848, "zone": "ТТК-МКАД", "submarket": "ТТК-МКАД Запад", "biz": "", "lat": 55.729925, "lng": 37.44321}, {"name": "Upside Останкино", "on_sale": "да", "address": "проезд Огородный, 20А/2", "developer": "Upside Development", "status": "Строится", "year": "2027", "cls": "A", "gba": 44854.0, "gla": 36313.7984, "scheme": "ДКПБВ", "volume": 7232.82, "price": 417254.00562989264, "weight": 3017923117.0, "zone": "ТТК-МКАД", "submarket": "ТТК-МКАД Север", "biz": "", "lat": 55.818786, "lng": 37.595546}, {"name": "Upside Ямская", "on_sale": "да", "address": "Москва, ул. 2-я Ямская, 9", "developer": "Upside Development", "status": "Строится", "year": "2028", "cls": "A", "gba": 33070.0, "gla": 19707.0, "scheme": "ДКПБВ", "volume": 10426.419999999998, "price": 492582.4699177667, "weight": 5135871716.0, "zone": "ТТК-МКАД", "submarket": "ТТК-МКАД Север", "biz": "Савеловский", "lat": 55.795023, "lng": 37.607035}, {"name": "Valtri", "on_sale": "да", "address": "ул. Грузинский Вал, 3", "developer": "ESVE GROUP", "status": "Строится", "year": "2027", "cls": "A", "gba": 35200.0, "gla": 29990.0, "scheme": "ДКПБВ", "volume": 6023.5, "price": 669665.9547439195, "weight": 4033732878.3999996, "zone": "СК-ТТК", "submarket": "СК-ТТК Север", "biz": "Белорусский", "lat": 55.773439, "lng": 37.576591}, {"name": "West Pier", "on_sale": "да", "address": "Причальный проезд, 4к2", "developer": "West Pier", "status": "Строится", "year": "2027", "cls": "A", "gba": 7993.0, "gla": 5944.0, "scheme": "ДКПБВ", "volume": 904.0, "price": 400000.0, "weight": 361600000.0, "zone": "ТТК-МКАД", "submarket": "ТТК-МКАД Запад", "biz": "Большой Сити", "lat": 55.761284, "lng": 37.518892}, {"name": "А101 Прокшино", "on_sale": "да", "address": "поселение Сосенское, квартал № 35", "developer": "A101", "status": "Строится", "year": "2027", "cls": "A", "gba": 42000.0, "gla": 22700.0, "scheme": "ДКПБВ", "volume": 8549.199999999997, "price": 222469.0068076546, "weight": 1901932033.0, "zone": "За МКАД", "submarket": "Новая Москва", "biz": "", "lat": 55.586603, "lng": 37.43693}, {"name": "Алкон 3", "on_sale": "нет", "address": "Ленинский пр-т., 34", "developer": "Alcon Development", "status": "Построен", "year": "2023", "cls": "A", "gba": 0.0, "gla": 14146.4, "scheme": "ДКПБВ", "volume": 0.0, "price": 0.0, "weight": 0.0, "zone": "СК-ТТК", "submarket": "СК-ТТК Север", "biz": "", "lat": 55.785761, "lng": 37.568839}, {"name": "Бадаевский", "on_sale": "нет", "address": "г. Москва, пр-кт Кутузовский, д. 12/1, корпус 12/2", "developer": "Capital Group", "status": "Строится", "year": "2026", "cls": "A", "gba": 11145.0, "gla": 7143.0, "scheme": "ДДУ", "volume": 0.0, "price": 0.0, "weight": 0.0, "zone": "СК-ТТК", "submarket": "СК-ТТК Запад", "biz": "", "lat": 55.749324, "lng": 37.559631}, {"name": "Башня Власов", "on_sale": "нет", "address": "Холодильный пер.,д.3", "developer": "Товарищество Рябовской Мануфактуры", "status": "Строится", "year": "2029", "cls": "A", "gba": 18000.0, "gla": 14572.800000000001, "scheme": "ДКПБВ", "volume": 0.0, "price": 0.0, "weight": 0.0, "zone": "СК-ТТК", "submarket": "СК-ТТК Юг", "biz": "Павелецкий", "lat": 55.708394, "lng": 37.625397}, {"name": "Башня Рябов", "on_sale": "да", "address": "Москва, Холодильный пер., 3к1с1", "developer": "Товарищество Рябовской Мануфактуры", "status": "Строится", "year": "2027", "cls": "A", "gba": 18000.0, "gla": 14500.0, "scheme": "ДКПБВ", "volume": 4697.8, "price": 505732.25765251816, "weight": 2375829000.0, "zone": "СК-ТТК", "submarket": "СК-ТТК Юг", "biz": "Павелецкий", "lat": 55.708945, "lng": 37.626809}, {"name": "Бизнес-парк Переделкино", "on_sale": "да", "address": "Москва, пос. Внуковское, кв-л 9, з/у 1", "developer": "Инвестиционная группа АБСОЛЮТ", "status": "Построен", "year": "2025", "cls": "A", "gba": 43200.0, "gla": 26617.0, "scheme": "ДКПБВ", "volume": 22515.309999999998, "price": 226478.5727578257, "weight": 5099235274.0, "zone": "За МКАД", "submarket": "Новая Москва", "biz": "", "lat": 55.628458, "lng": 37.307163}, {"name": "Бизнес-хаб Потапово", "on_sale": "да", "address": "проспект Куприна, 2", "developer": "A101", "status": "Строится", "year": "2027", "cls": "B+", "gba": 20000.0, "gla": 15480.0, "scheme": "ДКПБВ", "volume": 2341.7999999999997, "price": 241449.81680758393, "weight": 565427181.0, "zone": "За МКАД", "submarket": "Новая Москва", "biz": "", "lat": 55.541413, "lng": 37.473051}, {"name": "БЦ Варшавская", "on_sale": "да", "address": "г. Москва, Каширский пр-д, 25/2", "developer": "ГК Пионер", "status": "Строится", "year": "2028", "cls": "A", "gba": 71700.0, "gla": 39653.0, "scheme": "ДДУ", "volume": 3489.45, "price": 310512.48964736564, "weight": 1083517807.0, "zone": "ТТК-МКАД", "submarket": "ТТК-МКАД Юг", "biz": "", "lat": 55.654035, "lng": 37.624391}, {"name": "БЦ на ул. Эдварда Грига", "on_sale": "да", "address": "Москва, ул. Александры Монаховой, 39Б", "developer": "A101", "status": "Строится", "year": "2026", "cls": "A", "gba": 3682.0, "gla": 2792.0, "scheme": "ДКПБВ", "volume": 2415.0, "price": 185900.0, "weight": 448948500.0, "zone": "За МКАД", "submarket": "Новая Москва", "biz": "", "lat": 55.565717, "lng": 37.491323}, {"name": "БЦ Сколковский", "on_sale": "да", "address": "Кулибина ул., д. 8 стр. 1", "developer": "Пожарная охрана", "status": "Строится", "year": "2025", "cls": "B+", "gba": 0.0, "gla": 8500.0, "scheme": "ДКПБВ", "volume": 8500.0, "price": 287500.0, "weight": 2443750000.0, "zone": "За МКАД", "submarket": "За МКАД", "biz": "", "lat": 55.693668, "lng": 37.349749}, {"name": "ВАРСТ", "on_sale": "да", "address": "Москва, Сущёвский вал, 43, с 2", "developer": "West Wind Group", "status": "Строится", "year": "2026", "cls": "B+", "gba": 12028.9, "gla": 9738.59744, "scheme": "ДКПБВ", "volume": 470.40000000000003, "price": 437882.65306122444, "weight": 205980000.0, "zone": "СК-ТТК", "submarket": "СК-ТТК Север", "biz": "Савеловский", "lat": 55.793829, "lng": 37.610116}, {"name": "Деловой дуэт", "on_sale": "нет", "address": "Шумкина ул., 14с5, с13", "developer": "АО \"Мостранссклад\"", "status": "Построен", "year": "2025", "cls": "B+", "gba": 28750.0, "gla": 23671.0, "scheme": "ДКПБВ", "volume": 0.0, "price": 0.0, "weight": 0.0, "zone": "СК-ТТК", "submarket": "СК-ТТК Восток", "biz": "", "lat": 55.78892, "lng": 37.665992}, {"name": "Дом Правды", "on_sale": "да", "address": "Москва, ул. Правды, 24", "developer": "Metropolis", "status": "Строится", "year": "2028", "cls": "A", "gba": 16000.0, "gla": 12953.6, "scheme": "ДКПБВ", "volume": 12480.0, "price": 939276.1752136754, "weight": 11722166666.666668, "zone": "СК-ТТК", "submarket": "СК-ТТК Север", "biz": "Савеловский", "lat": 55.787791, "lng": 37.581891}, {"name": "Звенигородская от Гранель", "on_sale": "да", "address": "1-й Силикатный проезд, 13", "developer": "Гранель", "status": "Строится", "year": "2029", "cls": "A", "gba": 107000.0, "gla": 65000.0, "scheme": "ДКПБВ", "volume": 4659.04, "price": 429359.2098372197, "weight": 2000401733.0, "zone": "ТТК-МКАД", "submarket": "ТТК-МКАД Запад", "biz": "Большой Сити", "lat": 55.767798, "lng": 37.510502}, {"name": "Квартал Lucky", "on_sale": "нет", "address": "2-ая Звенигородская ул., д. 12", "developer": "Vesper", "status": "Построен", "year": "2023", "cls": "A", "gba": 0.0, "gla": 34067.0, "scheme": "ДКПБВ", "volume": 0.0, "price": 0.0, "weight": 0.0, "zone": "СК-ТТК", "submarket": "СК-ТТК Запад", "biz": "", "lat": 55.762875, "lng": 37.556909}, {"name": "Королев (Рассвет)", "on_sale": "нет", "address": "Столярный пер., 3 корп. 1", "developer": "KR Properties", "status": "Строится", "year": "2025", "cls": "A", "gba": 0.0, "gla": 9687.79, "scheme": "ДКПБВ", "volume": 0.0, "price": 0.0, "weight": 0.0, "zone": "СК-ТТК", "submarket": "СК-ТТК Запад", "biz": "", "lat": 55.76324, "lng": 37.569135}, {"name": "Магистральная 12", "on_sale": "нет", "address": "Москва, ул. Магистральная, 12", "developer": "ФСК", "status": "Строится", "year": "2026", "cls": "B+", "gba": 18746.0, "gla": 11834.0, "scheme": "ДКПБВ", "volume": 0.0, "price": 0.0, "weight": 0.0, "zone": "ТТК-МКАД", "submarket": "ТТК-МКАД Северо-Запад", "biz": "", "lat": 55.76952, "lng": 37.527988}, {"name": "Минто", "on_sale": "да", "address": "Москва, Волоколамское шоссе, 32", "developer": "Forma (ПИК)", "status": "Строится", "year": "2028", "cls": "A", "gba": 54772.0, "gla": 41602.0, "scheme": "ДКПБВ", "volume": 14044.899999999998, "price": 268246.3574607153, "weight": 3767493265.8999996, "zone": "ТТК-МКАД", "submarket": "ТТК-МКАД Северо-Запад", "biz": "", "lat": 55.813147, "lng": 37.477857}, {"name": "МФК North Wind", "on_sale": "да", "address": "Москва, 2-й Хорошевский проезд, 7", "developer": "Sezar Group", "status": "Строится", "year": "2027", "cls": "A", "gba": 30430.0, "gla": 24300.0, "scheme": "ДКПБВ", "volume": 22320.0, "price": 450000.0, "weight": 10044000000.0, "zone": "ТТК-МКАД", "submarket": "ТТК-МКАД Запад", "biz": "Большой Сити", "lat": 55.772292, "lng": 37.534881}, {"name": "МФК Строгино", "on_sale": "да", "address": "Москва, Строгино, пр-д №607, влд. 21", "developer": "PARADE Development", "status": "Строится", "year": "2027", "cls": "A", "gba": 28390.0, "gla": 13390.0, "scheme": "ДДУ", "volume": 4591.900000000001, "price": 403463.06335068267, "weight": 1852662040.6, "zone": "ТТК-МКАД", "submarket": "ТТК-МКАД Запад", "biz": "", "lat": 55.788834, "lng": 37.381783}, {"name": "Обсидиан", "on_sale": "да", "address": "ул. Авиаконструктора Микояна, 1", "developer": "Capital Group", "status": "Построен", "year": "2025", "cls": "A", "gba": 9872.0, "gla": 5398.0, "scheme": "ДКПБВ", "volume": 9872.0, "price": 536500.0, "weight": 5296328000.0, "zone": "ТТК-МКАД", "submarket": "ТТК-МКАД Северо-Запад", "biz": "Ходынка", "lat": 55.788409, "lng": 37.544117}, {"name": "Октябрьское поле", "on_sale": "да", "address": "Берзарина ул., вл. 32/4", "developer": "РГ Девелопмент", "status": "Построен", "year": "2024", "cls": "A", "gba": 11894.0, "gla": 7611.0, "scheme": "ДКПБВ", "volume": 11893.9, "price": 423746.39999999997, "weight": 5039997306.959999, "zone": "ТТК-МКАД", "submarket": "ТТК-МКАД Северо-Запад", "biz": "Большой Сити", "lat": 55.789725, "lng": 37.471039}, {"name": "Ольховая SKY", "on_sale": "да", "address": "г. Москва, п. Сосенское", "developer": "ГК Гранель", "status": "Строится", "year": "2027", "cls": "B+", "gba": 22750.0, "gla": 18113.0, "scheme": "ДКПБВ", "volume": 22750.0, "price": 200000.0, "weight": 4550000000.0, "zone": "За МКАД", "submarket": "Новая Москва", "biz": "", "lat": 55.572403, "lng": 37.45855}, {"name": "Орбитал", "on_sale": "нет", "address": "3-Я МАГИСТРАЛЬНАЯ УЛИЦА, 10", "developer": "Ultima Development", "status": "Построен", "year": "2023", "cls": "A", "gba": 27271.0, "gla": 24014.0, "scheme": "ДКПБВ", "volume": 0.0, "price": 0.0, "weight": 0.0, "zone": "ТТК-МКАД", "submarket": "ТТК-МКАД Запад", "biz": "Большой Сити", "lat": 55.762961, "lng": 37.523115}, {"name": "Останкино", "on_sale": "нет", "address": "г, Москва, Бутырский р-н, проезд Огородный, влд 16", "developer": "ГК Пионер", "status": "Построен", "year": "2025", "cls": "A", "gba": 133500.0, "gla": 104490.0, "scheme": "ДДУ", "volume": 0.0, "price": 0.0, "weight": 0.0, "zone": "ТТК-МКАД", "submarket": "ТТК-МКАД Север", "biz": "", "lat": 55.814897, "lng": 37.60098}, {"name": "Парк Легенд класс А", "on_sale": "нет", "address": "г. Москва, Даниловский р-н, ул. Автозаводская, д. 23А", "developer": "Автотех/УК ФИН-Партнер", "status": "Построен", "year": "2023", "cls": "A", "gba": 0.0, "gla": 43320.0, "scheme": "ДКПБВ", "volume": 0.0, "price": 0.0, "weight": 0.0, "zone": "ТТК-МКАД", "submarket": "ТТК-МКАД Юг", "biz": "", "lat": 55.689695, "lng": 37.633868}, {"name": "Парк Легенд класс В+", "on_sale": "нет", "address": "г. Москва, Даниловский р-н, Автозаводская ул., д. 23, стр. 120", "developer": "Автотех/УК ФИН-Партнер", "status": "Построен", "year": "2023", "cls": "B+", "gba": 0.0, "gla": 48000.0, "scheme": "ДКПБВ", "volume": 0.0, "price": 0.0, "weight": 0.0, "zone": "ТТК-МКАД", "submarket": "ТТК-МКАД Юг", "biz": "", "lat": 55.700174, "lng": 37.642548}, {"name": "Плейн", "on_sale": "да", "address": "Москва, ул. Авиационная, 22", "developer": "Forma (ПИК)", "status": "Строится", "year": "2028", "cls": "A", "gba": 15984.0, "gla": 13908.0, "scheme": "ДКПБВ", "volume": 15984.0, "price": 299764.0, "weight": 4791427776.0, "zone": "ТТК-МКАД", "submarket": "ТТК-МКАД Северо-Запад", "biz": "", "lat": 55.810719, "lng": 37.476501}, {"name": "Прайм Тайм", "on_sale": "нет", "address": "Викторенко ул., д. 11", "developer": "Атлантик", "status": "Построен", "year": "2022", "cls": "B+", "gba": 0.0, "gla": 12929.0, "scheme": "ДКПБВ", "volume": 0.0, "price": 0.0, "weight": 0.0, "zone": "ТТК-МКАД", "submarket": "ТТК-МКАД Северо-Запад", "biz": "", "lat": 55.795444, "lng": 37.526905}, {"name": "Раменки", "on_sale": "да", "address": "г. Москва, ул. Лобачевского, 114", "developer": "Донстрой", "status": "Строится", "year": "2027", "cls": "A", "gba": 22875.0, "gla": 18518.7904, "scheme": "ДКПБВ", "volume": 22874.7, "price": 550826.8995440376, "weight": 12600000078.999998, "zone": "ТТК-МКАД", "submarket": "ТТК-МКАД Запад", "biz": "", "lat": 55.691318, "lng": 37.476644}, {"name": "Родина Парк", "on_sale": "да", "address": "Москва, ул. Верейская, 12", "developer": "ГК Родина", "status": "Строится", "year": "2028", "cls": "A", "gba": 30600.0, "gla": 24000.0, "scheme": "ДДУ", "volume": 2552.6, "price": 483652.94954164384, "weight": 1234572519.0, "zone": "ТТК-МКАД", "submarket": "ТТК-МКАД Запад", "biz": "", "lat": 55.712818, "lng": 37.440891}, {"name": "Рублево Бизнес-Парк", "on_sale": "да", "address": "Улица Липовой Рощи, 1к4", "developer": "ГК Пионер", "status": "Строится", "year": "2026", "cls": "A", "gba": 105355.0, "gla": 62000.0, "scheme": "ДДУ", "volume": 32565.180000000004, "price": 342951.6633966094, "weight": 11168282649.81, "zone": "За МКАД", "submarket": "За МКАД", "biz": "", "lat": 55.800797, "lng": 37.381693}, {"name": "Руновский 14", "on_sale": "да", "address": "Руновский переулок, 14", "developer": "Зиккурат девелопмент", "status": "Строится", "year": "2026", "cls": "A", "gba": 4500.0, "gla": 3643.2000000000003, "scheme": "ДДУ", "volume": 1685.39, "price": 1347752.597321688, "weight": 2271488750.0, "zone": "БК-СК", "submarket": "БК-СК Юг", "biz": "ЦДР", "lat": 55.742519, "lng": 37.631883}, {"name": "Север.Сити", "on_sale": "да", "address": "улица Антонова-Овсеенко, вл. 13-15", "developer": "Страна Девелопмент", "status": "Строится", "year": "n/a", "cls": "A", "gba": 393264.0, "gla": 208330.0, "scheme": "ДКПБВ", "volume": 4203.0, "price": 452574.8532000952, "weight": 1902172108.0, "zone": "БК-СК", "submarket": "ТТК-МКАД Север", "biz": "", "lat": 55.793176, "lng": 37.630925}, {"name": "Сити-4", "on_sale": "да", "address": "Москва, Пресненская наб., 4", "developer": "Sezar Group", "status": "Строится", "year": "2027", "cls": "A", "gba": 84972.0, "gla": 72397.6, "scheme": "ДКПБВ", "volume": 32077.699999999993, "price": 959747.0145926924, "weight": 30786476810.0, "zone": "ТТК-МКАД", "submarket": "Сити (ТТК Запад)", "biz": "Сити", "lat": 55.747165, "lng": 37.541225}, {"name": "Технопарк Густав", "on_sale": "да", "address": "Складочная ул., 6С36", "developer": "Forma (ПИК)", "status": "Строится", "year": "2026", "cls": "B+", "gba": 56000.0, "gla": 36284.0, "scheme": "ДКПБВ", "volume": 2587.3999999999996, "price": 364078.0345907089, "weight": 942015506.7, "zone": "ТТК-МКАД", "submarket": "ТТК-МКАД Север", "biz": "Савеловский", "lat": 55.805801, "lng": 37.601448}, {"name": "Цетлин", "on_sale": "да", "address": "Москва, ул. Неверовского, 10с3", "developer": "Сумма элементов", "status": "Строится", "year": "2027", "cls": "A", "gba": 27400.0, "gla": 20500.0, "scheme": "ДКПБВ", "volume": 2096.7, "price": 555119.0442123337, "weight": 1163918100.0, "zone": "ТТК-МКАД", "submarket": "ТТК-МКАД Запад", "biz": "Большой Сити", "lat": 55.738693, "lng": 37.51026}, {"name": "Эйлер", "on_sale": "да", "address": "Москва, ул. Заречная, д. 6", "developer": "Сумма элементов", "status": "Строится", "year": "2026", "cls": "A", "gba": 18845.0, "gla": 10353.0, "scheme": "ДДУ", "volume": 2774.4900000000007, "price": 602803.4364874264, "weight": 1672472106.5, "zone": "ТТК-МКАД", "submarket": "ТТК-МКАД Запад", "biz": "Большой Сити", "lat": 55.754487, "lng": 37.503217}, {"name": "Энтузиаст", "on_sale": "да", "address": "Москва, шоссе Энтузиастов, 12", "developer": "ТЭН", "status": "Строится", "year": "2028", "cls": "B+", "gba": 43821.0, "gla": 37300.0, "scheme": "ДДУ", "volume": 43821.0, "price": 290000.0, "weight": 12708090000.0, "zone": "ТТК-МКАД", "submarket": "ТТК-МКАД Восток", "biz": "", "lat": 55.748686, "lng": 37.705274}]