[{"name": "AFI Парк Воронцовский", "address": "ул. Академика Челомея, 1А", "developer": "AFI development", "status": "Строится", "year": "2025", "start": "", "cls": "A", "gba": 9000.0, "gla": null, "volume": 1621.1, "price": 381067.52063413727, "weight": 617748557.6999999, "zone": "ТТК-МКАД", "submarket": "ТТК-МКАД Юго-Запад", "biz": "", "on_sale": "", "lat": 55.663181, "lng": 37.537524, "id": 49, "name_orig": "AFI Парк Воронцовский", "lots": 10}, {"name": "AFI Сиреневый парк", "address": "Москва, ул. Тагильская, 4А", "developer": "AFI development", "status": "Строится", "year": "2026", "start": "", "cls": "B+", "gba": 32186.0, "gla": null, "volume": 32186.0, "price": 350000.0, "weight": 11265100000.0, "zone": "ТТК-МКАД", "submarket": "ТТК-МКАД Восток", "biz": "", "on_sale": "", "lat": 55.818103, "lng": 37.752868, "id": 50, "name_orig": "AFI Сиреневый парк", "lots": 1}, {"name": "Ahead", "address": "Василисы Кожиной, 25/1", "developer": "Восход", "status": "Строится", "year": "2024", "start": "", "cls": "A", "gba": 10677.0, "gla": null, "volume": 10677.0, "price": 400000.0, "weight": 4270800000.0, "zone": "ТТК-МКАД", "submarket": "ТТК-МКАД Запад", "biz": "", "on_sale": "", "lat": 55.734238, "lng": 37.493326, "id": 1, "name_orig": "Ahead", "lots": 1}, {"name": "Porta Forma", "address": "Заречная ул. 2/1", "developer": "Forma", "status": "Строится", "year": "2025", "start": "", "cls": "A", "gba": 35000.0, "gla": null, "volume": 880.25, "price": 682802.6302186878, "weight": 601037015.25, "zone": "ТТК-МКАД", "submarket": "ТТК-МКАД Запад", "biz": "", "on_sale": "", "lat": 55.747221, "lng": 37.518821, "id": 14, "name_orig": "Porta Forma", "lots": 8}, {"name": "Fili Centre", "address": "Промышленный проезд, вл. 5", "developer": "Филевское оптово-розничное предприятие", "status": "Строится", "year": "2024", "start": "", "cls": "A", "gba": 25749.4, "gla": null, "volume": 25749.0, "price": 456000.0, "weight": 11741544000.0, "zone": "ТТК-МКАД", "submarket": "ТТК-МКАД Запад", "biz": "", "on_sale": "", "lat": 55.741059, "lng": 37.509505, "id": 2, "name_orig": "Fili Centre", "lots": 1}, {"name": "Fili residence", "address": "Кастанаевская улица, 16с1", "developer": "ООО СЗ ФИЛИ ГАРДЕН", "status": "Строится", "year": "2025", "start": "", "cls": "A", "gba": 7025.0, "gla": null, "volume": 1282.3, "price": 481944.16397878807, "weight": 617997001.4699999, "zone": "ТТК-МКАД", "submarket": "ТТК-МКАД Запад", "biz": "", "on_sale": "", "lat": 55.739569, "lng": 37.494252, "id": 51, "name_orig": "Fili residence", "lots": 17}, {"name": "Geolog 2", "address": "Обручева ул., вл. 23", "developer": "Hutton", "status": "Строится", "year": "2026", "start": "", "cls": "A", "gba": 17718.0, "gla": null, "volume": 7206.0, "price": 378004.69053566473, "weight": 2723901800.0, "zone": "ТТК-МКАД", "submarket": "ТТК-МКАД Юго-Запад", "biz": "", "on_sale": "", "lat": 55.657377, "lng": 37.530139, "id": 4, "name_orig": "Geolog 2", "lots": 32}, {"name": "Workplace REPUBLIC Frame", "address": "ул. Пресненский Вал, 27", "developer": "Forma", "status": "Строится", "year": "2027", "start": "", "cls": "A", "gba": 49681.0, "gla": null, "volume": 8254.44, "price": 360000.0, "weight": 2971598400.0, "zone": "СК-ТТК", "submarket": "ТТК Север", "biz": "", "on_sale": "", "lat": 55.774281, "lng": 37.575982, "id": 52, "name_orig": "Workplace REPUBLIC Frame", "lots": 0}, {"name": "K-city", "address": "Бауманская, 11", "developer": "October Group", "status": "Строится", "year": "2028", "start": "Q1 2025", "cls": "A", "gba": 59800.0, "gla": null, "volume": 2243.7, "price": 418492.8912064893, "weight": 938972500.0, "zone": "СК-ТТК", "submarket": "ТТК Восток", "biz": "", "on_sale": "", "lat": 55.776988, "lng": 37.678361, "id": 53, "name_orig": "K-city", "lots": 19}, {"name": "Lakes", "address": "Москва, ул. Озёрная вл.42", "developer": "ПИК", "status": "Строится", "year": "2025", "start": "", "cls": "A", "gba": 42570.0, "gla": null, "volume": 4460.28, "price": 286642.81614607153, "weight": 1278507219.9999998, "zone": "СК-ТТК", "submarket": "ТТК-МКАД Запад", "biz": "", "on_sale": "", "lat": 55.760322, "lng": 37.579825, "id": 6, "name_orig": "Lakes", "lots": 12}, {"name": "Level Воронцовская", "address": "Москва, ул. Академика Семинихина,вл. 2", "developer": "Level", "status": "Строится", "year": "2026", "start": "", "cls": "B+", "gba": 26650.0, "gla": null, "volume": 4105.6, "price": 376164.0007794232, "weight": 1544378921.6000001, "zone": "ТТК-МКАД", "submarket": "ТТК-МКАД Юго-Запад", "biz": "", "on_sale": "", "lat": 55.660435, "lng": 37.535628, "id": 7, "name_orig": "Level Воронцовская", "lots": 19}, {"name": "iCITY (Space)", "address": "г. Москва, Пресненский р-н, проезд Шмитовский, д. 37, стр 1", "developer": "MR Group", "status": "Построен", "year": "2024", "start": "", "cls": "A", "gba": 120150.0, "gla": null, "volume": 12964.1, "price": 752525.9018674648, "weight": 9755821044.4, "zone": "ТТК-МКАД", "submarket": "ТТК Запад (Сити)", "biz": "", "on_sale": "", "lat": 55.753661, "lng": 37.530786, "id": 54, "name_orig": "iCITY (Space)", "lots": 16}, {"name": "Lunar модуль В", "address": "Ленинский пр-кт, 38", "developer": "Hutton", "status": "Построен", "year": "2024", "start": "", "cls": "A", "gba": 10874.0, "gla": null, "volume": 816.2, "price": 550871.1100220534, "weight": 449621000.0, "zone": "ТТК-МКАД", "submarket": "ТТК-МКАД Юго-Запад", "biz": "", "on_sale": "", "lat": 55.704423, "lng": 37.572207, "id": 55, "name_orig": "Lunar модуль В", "lots": 2}, {"name": "Nevsky Plaza", "address": "улица Выборгская, 18", "developer": "Крост", "status": "Строится", "year": "2025", "start": "", "cls": "B+", "gba": 13158.0, "gla": null, "volume": 3501.6, "price": 332391.5257786917, "weight": 1163902166.6666667, "zone": "ТТК-МКАД", "submarket": "ТТК-МКАД Северо-Запад", "biz": "", "on_sale": "", "lat": 55.834522, "lng": 37.49683, "id": 9, "name_orig": "Nevsky Plaza", "lots": 82}, {"name": "Nice Tower", "address": "Скотопрогонная ул,, 31", "developer": "Coldy", "status": "Строится", "year": "2026", "start": "", "cls": "A", "gba": 21500.0, "gla": null, "volume": 9259.4, "price": 324782.99405123445, "weight": 3007295655.118, "zone": "СК-ТТК", "submarket": "ТТК Восток", "biz": "", "on_sale": "", "lat": 55.729716, "lng": 37.694423, "id": 10, "name_orig": "Nice Tower", "lots": 41}, {"name": "NOON", "address": "Окская ул., вл. 9", "developer": "Dominanta", "status": "Строится", "year": "2026", "start": "Q1 2025", "cls": "B+", "gba": 10198.0, "gla": null, "volume": 5443.0, "price": 309735.49513136136, "weight": 1685890299.9999998, "zone": "ТТК-МКАД", "submarket": "ТТК-МКАД Восток", "biz": "", "on_sale": "", "lat": 55.717544, "lng": 37.774742, "id": 56, "name_orig": "NOON", "lots": 52}, {"name": "Обсидиан (бывший — Obsidian)", "address": "ул. Авиаконструктора Микояна, 1", "developer": "Capital Group", "status": "Строится", "year": "2025", "start": "", "cls": "A", "gba": 9872.0, "gla": null, "volume": 9872.0, "price": 564000.0, "weight": 5567808000.0, "zone": "ТТК-МКАД", "submarket": "ТТК-МКАД Северо-Запад", "biz": "", "on_sale": "", "lat": 55.788409, "lng": 37.544117, "id": 48, "name_orig": "Obsidian", "lots": 0}, {"name": "STONE Савеловская", "address": "г. Москва, Марьина роща р-н, ул. Двинцев, влд 3", "developer": "STONE", "status": "Строится", "year": "2031", "start": "", "cls": "A", "gba": 78000.0, "gla": null, "volume": 12993.1, "price": 458769.6084845033, "weight": 5960839400.0, "zone": "ТТК-МКАД", "submarket": "ТТК-МКАД Север", "biz": "", "on_sale": "", "lat": 55.797025, "lng": 37.595362, "id": 17, "name_orig": "Stone Cавеловская", "lots": 17}, {"name": "Stone Towers", "address": "г. Москва, Беговой р-н, проезд Бумажный, д. 19", "developer": "STONE", "status": "Строится", "year": "2025", "start": "", "cls": "A", "gba": 85262.0, "gla": null, "volume": null, "price": null, "weight": 0.0, "zone": "СК-ТТК", "submarket": "ТТК Север", "biz": "", "on_sale": "", "lat": 55.789775, "lng": 37.586033, "id": 18, "name_orig": "Stone Towers", "lots": 0}, {"name": "STONE Дмитровская", "address": "г. Москва, Дмитровский проезд, вл. 1г", "developer": "STONE", "status": "Строится", "year": "2027", "start": "", "cls": "A", "gba": 39670.4, "gla": null, "volume": 26387.6, "price": 381410.1839045612, "weight": 10064499368.8, "zone": "ТТК-МКАД", "submarket": "ТТК-МКАД Север", "biz": "", "on_sale": "", "lat": 55.808399, "lng": 37.575947, "id": 20, "name_orig": "Stone Дмитровская", "lots": 67}, {"name": "QOOB", "address": "Алексея Свиридовая ул., вл. 17", "developer": "Dominanta", "status": "Строится", "year": "2025", "start": "", "cls": "A", "gba": 7682.35294117647, "gla": null, "volume": 3614.0, "price": 437820.78029883787, "weight": 1582284300.0, "zone": "ТТК-МКАД", "submarket": "ТТК-МКАД Запад", "biz": "", "on_sale": "", "lat": 55.726442, "lng": 37.451638, "id": 15, "name_orig": "QOOB", "lots": 33}, {"name": "STONE Калужская", "address": "Старокалужское ш., вл. 64", "developer": "STONE", "status": "Строится", "year": "2028", "start": "", "cls": "A", "gba": 61920.0, "gla": null, "volume": 16480.0, "price": 339642.96116504853, "weight": 5597316000.0, "zone": "ТТК-МКАД", "submarket": "ТТК-МКАД Юго-Запад", "biz": "", "on_sale": "", "lat": 55.65887, "lng": 37.537184, "id": 44, "name_orig": "Stone Калужская", "lots": 69}, {"name": "STONE Курская", "address": "г. Москва, Таганский р-н, Костомаровский пер, д. 11, стр. 1", "developer": "STONE", "status": "Строится", "year": "2024", "start": "", "cls": "A", "gba": 15600.0, "gla": null, "volume": 15600.0, "price": 415000.0, "weight": 6474000000.0, "zone": "СК-ТТК", "submarket": "ТТК Восток", "biz": "", "on_sale": "", "lat": 55.750586, "lng": 37.666683, "id": 21, "name_orig": "STONE Курская", "lots": 1}, {"name": "STONE Ленинский", "address": "ул. Вавилова, вл. 11, 13а", "developer": "STONE", "status": "Строится", "year": "2026", "start": "", "cls": "A", "gba": 70000.0, "gla": null, "volume": 2293.9, "price": 527957.5395614456, "weight": 1211081800.0, "zone": "ТТК-МКАД", "submarket": "ТТК-МКАД Юго-Запад", "biz": "", "on_sale": "", "lat": 55.704072, "lng": 37.584135, "id": 22, "name_orig": "Stone Ленинский", "lots": 6}, {"name": "STONE Мневники", "address": "ул. Нижние Мнёвники, з/у 41", "developer": "STONE", "status": "Строится", "year": "2028", "start": "", "cls": "A", "gba": 28000.0, "gla": null, "volume": 22794.0, "price": 456594.84890760726, "weight": 10407622986.0, "zone": "ТТК-МКАД", "submarket": "ТТК-Мкад Запад", "biz": "", "on_sale": "", "lat": 55.754038, "lng": 37.456532, "id": 57, "name_orig": "STONE Мневники", "lots": 50}, {"name": "STONE Римская", "address": "Золоторожский Вал ул., вл. 11, стр. 32-34", "developer": "STONE", "status": "Строится", "year": "2027", "start": "", "cls": "A", "gba": 54180.0, "gla": null, "volume": 28461.7, "price": 433513.91167779855, "weight": 12338542900.0, "zone": "СК-ТТК", "submarket": "ТТК Восток", "biz": "", "on_sale": "", "lat": 55.748891, "lng": 37.683733, "id": 58, "name_orig": "Stone Римская", "lots": 173}, {"name": "Stone Ходынка 1", "address": "Москва, Хорошевский р-н, микрорайон Ходынское Поле", "developer": "STONE", "status": "Строится", "year": "2027", "start": "", "cls": "A", "gba": 72054.40000000001, "gla": null, "volume": 23280.2, "price": 492198.4519033341, "weight": 11458478400.0, "zone": "ТТК-МКАД", "submarket": "ТТК-МКАД Северо-Запад", "biz": "", "on_sale": "", "lat": 55.788171, "lng": 37.533598, "id": 23, "name_orig": "Stone Ходынка 1", "lots": 0}, {"name": "Stone Ходынка 2", "address": "Ходынский бульвар, вл. 6/2", "developer": "STONE", "status": "Строится", "year": "2028", "start": "", "cls": "A", "gba": 53000.0, "gla": null, "volume": 29679.4, "price": 475051.7141047325, "weight": 14099249843.599998, "zone": "ТТК-МКАД", "submarket": "ТТК-МКАД Северо-Запад", "biz": "", "on_sale": "", "lat": 55.789203, "lng": 37.525082, "id": 24, "name_orig": "Stone Ходынка 2", "lots": 0}, {"name": "Air", "address": "Москва, ул. Ходынский бульвар, вл. 4/1", "developer": "Tekta group", "status": "Строится", "year": "2028", "start": "", "cls": "A", "gba": 105248.0, "gla": null, "volume": 10584.2, "price": 505841.7499669318, "weight": 5353930250.0, "zone": "ТТК-МКАД", "submarket": "ТТК-МКАД Северо-Запад", "biz": "", "on_sale": "", "lat": 55.789103, "lng": 37.530992, "id": 59, "name_orig": "Air", "lots": 58}, {"name": "А101 Прокшино", "address": "поселение Сосенское, квартал № 35", "developer": "А101", "status": "Строится", "year": "2027", "start": "", "cls": "A", "gba": 142089.0, "gla": null, "volume": 17838.1, "price": 237020.18875328652, "weight": 4227989829.0, "zone": "за МКАД", "submarket": "Новая Москва", "biz": "", "on_sale": "", "lat": 55.586603, "lng": 37.43693, "id": 28, "name_orig": "А101 Прокшино", "lots": 67}, {"name": "Opus", "address": "Дербеневская ул.", "developer": "ГК Пионер", "status": "Строится", "year": "2026", "start": "", "cls": "A", "gba": 23000.0, "gla": null, "volume": 4052.6, "price": 520171.2377979568, "weight": 2108045958.2999997, "zone": "СК-ТТК", "submarket": "ТТК Юг", "biz": "", "on_sale": "", "lat": 55.725821, "lng": 37.651809, "id": 11, "name_orig": "Opus", "lots": 13}, {"name": "Taller", "address": "Жуков проезд, 8", "developer": "Coldy", "status": "Строится", "year": "2025", "start": "", "cls": "A", "gba": 37500.0, "gla": null, "volume": 2951.9, "price": 480388.87881025777, "weight": 1418059931.36, "zone": "СК-ТТК", "submarket": "ТТК Юг", "biz": "", "on_sale": "", "lat": 55.722005, "lng": 37.646247, "id": 25, "name_orig": "Taller", "lots": 10}, {"name": "Valtri", "address": "ул. Грузинский Вал, 3", "developer": "ЭСВЭ Групп", "status": "Строится", "year": "2027", "start": "Q1 2025", "cls": "A", "gba": 29991.0, "gla": null, "volume": 29990.0, "price": 570000.0, "weight": 17094300000.0, "zone": "СК-ТТК", "submarket": "ТТК Север", "biz": "", "on_sale": "", "lat": 55.773439, "lng": 37.576591, "id": 60, "name_orig": "Valtri", "lots": 1}, {"name": "West Pier", "address": "Причальный проезд, 4к2", "developer": "West Pier", "status": "Строится", "year": "2027", "start": "Q1 2025", "cls": "A", "gba": 5944.0, "gla": null, "volume": 904.0, "price": 395000.0, "weight": 357080000.0, "zone": "ТТК-МКАД", "submarket": "ТТК-МКАД Запад", "biz": "", "on_sale": "", "lat": 55.761284, "lng": 37.518892, "id": 61, "name_orig": "West Pier", "lots": 2}, {"name": "Plaza Botanica", "address": "г. Москва, Ростокино р-н, ул. Леонова 1-я, д. 1", "developer": "ГК Пионер", "status": "Построен", "year": "2024", "start": "", "cls": "A", "gba": 29500.0, "gla": null, "volume": 2596.1, "price": 289637.0, "weight": 751926615.6999999, "zone": "ТТК-МКАД", "submarket": "ТТК-МКАД Север", "biz": "", "on_sale": "", "lat": 55.845031, "lng": 37.639222, "id": 12, "name_orig": "Plaza Botanica", "lots": 1}, {"name": "Останкино", "address": "г. Москва, Бутырский р-н, проезд Огородный, влд 16", "developer": "ГК Пионер", "status": "Построен", "year": "2022-2024", "start": "", "cls": "A", "gba": 104490.0, "gla": null, "volume": 2378.4, "price": 354819.11722166167, "weight": 843901788.4000001, "zone": "ТТК-МКАД", "submarket": "ТТК-МКАД Север", "biz": "", "on_sale": "", "lat": 55.814897, "lng": 37.60098, "id": 38, "name_orig": "Останкино", "lots": 13}, {"name": "Бадаевский", "address": "пр-кт Кутузовский, д. 12/1, корпус 12/2", "developer": "Capital Group", "status": "Строится", "year": "2025", "start": "", "cls": "A", "gba": 14286.0, "gla": null, "volume": 14286.0, "price": 1000000.0, "weight": 14286000000.0, "zone": "СК-ТТК", "submarket": "ТТК Запад", "biz": "", "on_sale": "", "lat": 55.749324, "lng": 37.559631, "id": 45, "name_orig": "Бадаевский", "lots": 2}, {"name": "Башня Власов", "address": "Холодильный пер.,д.3", "developer": "Товарищество Рябовской Мануфактуры", "status": "Строится", "year": "2029", "start": "", "cls": "A", "gba": 14572.800000000001, "gla": null, "volume": 14572.800000000001, "price": 365000.0, "weight": 5319072000.0, "zone": "СК-ТТК", "submarket": "ТТК Юг", "biz": "", "on_sale": "", "lat": 55.708394, "lng": 37.625397, "id": 46, "name_orig": "Башня Власов", "lots": 1}, {"name": "Башня Рябов", "address": "Холодильный пер.,д.3", "developer": "Товарищество Рябовской Мануфактуры", "status": "Строится", "year": "2027", "start": "", "cls": "A", "gba": 16192.0, "gla": null, "volume": 15825.7, "price": 457985.20760535076, "weight": 7247936500.0, "zone": "СК-ТТК", "submarket": "ТТК Юг", "biz": "", "on_sale": "", "lat": 55.708945, "lng": 37.626809, "id": 47, "name_orig": "Башня Рябов", "lots": 22}, {"name": "БЦ Twist", "address": "Бутырская ул., 1", "developer": "Sminex", "status": "Строится", "year": "2026", "start": "", "cls": "A", "gba": 15382.400000000001, "gla": null, "volume": 2524.0, "price": 618801.1093502378, "weight": 1561854000.0, "zone": "ТТК-МКАД", "submarket": "ТТК-МКАД Север", "biz": "", "on_sale": "", "lat": 55.793278, "lng": 37.585449, "id": 31, "name_orig": "БЦ Twist", "lots": 7}, {"name": "БЦ Сколковский", "address": "Кулибина ул., д. 8 стр. 1", "developer": "Пожарная охрана", "status": "Строится", "year": "2025", "start": "", "cls": "A", "gba": 8500.0, "gla": null, "volume": 8500.0, "price": 220000.0, "weight": 1870000000.0, "zone": "за МКАД", "submarket": "Замкад Запад", "biz": "", "on_sale": "", "lat": 55.693668, "lng": 37.349749, "id": 62, "name_orig": "БЦ Сколковский", "lots": 1}, {"name": "Деловой дуэт", "address": "Шумкина ул., 14с5, с13", "developer": "АО \"Мостранссклад\"", "status": "Строится", "year": "2024", "start": "", "cls": "B+", "gba": 23671.0, "gla": null, "volume": 23671.0, "price": 240000.0, "weight": 5681040000.0, "zone": "ТТК-МКАД", "submarket": "ТТК-МКАД Восток", "biz": "", "on_sale": "", "lat": 55.78932, "lng": 37.666782, "id": 33, "name_orig": "Деловой Дуэт", "lots": 1}, {"name": "Кунцево Upside", "address": "Молдавская ул., 1", "developer": "Upside Development", "status": "Строится", "year": "2027", "start": "", "cls": "A", "gba": 26478.0, "gla": null, "volume": 13005.3, "price": 539459.7732539811, "weight": 7015836189.1, "zone": "ТТК-МКАД", "submarket": "ТТК-МКАД Запад", "biz": "", "on_sale": "", "lat": 55.729925, "lng": 37.44321, "id": 63, "name_orig": "Кунцево Upside", "lots": 0}, {"name": "Магистральная 12 (бывший — Магистральная ул., 12)", "address": "Москва, 5-я Магистральная улица, вл. 4", "developer": "ФСК", "status": "Строится", "year": "2027", "start": "", "cls": "B+", "gba": 16490.0, "gla": null, "volume": 8025.0, "price": 373126.42990654206, "weight": 2994339600.0, "zone": "СК-ТТК", "submarket": "ТТК-МКАД Запад", "biz": "", "on_sale": "", "lat": 55.76952, "lng": 37.527988, "id": 64, "name_orig": "Магистральная ул., 12", "lots": 0}, {"name": "МФК Строгино", "address": "проезд №607, д. 21", "developer": "AVA Group", "status": "Строится", "year": "2027", "start": "Q1 2025", "cls": "A", "gba": 13392.0, "gla": null, "volume": 10370.0, "price": 412616.80163934425, "weight": 4278836233.0, "zone": "ТТК-МКАД", "submarket": "ТТК-МКАД Запад", "biz": "", "on_sale": "", "lat": 55.788834, "lng": 37.381783, "id": 65, "name_orig": "МФК Строгино", "lots": 21}, {"name": "На Берзарина", "address": "Берзарина ул., вл. 32", "developer": "РГ Девелопмент", "status": "Построен", "year": "2024", "start": "", "cls": "A", "gba": 12000.0, "gla": null, "volume": 12000.0, "price": 460000.0, "weight": 5520000000.0, "zone": "ТТК-МКАД", "submarket": "ТТК-МКАД Запад", "biz": "", "on_sale": "", "lat": 55.789725, "lng": 37.471039, "id": 36, "name_orig": "На Берзарина", "lots": 1}, {"name": "Light City", "address": "2-я Магистральная ул., д. 3, стр. 1", "developer": "Проспект", "status": "Строится", "year": "2027", "start": "", "cls": "A", "gba": 24790.0, "gla": null, "volume": 17973.9, "price": 355033.8448683924, "weight": 6381342824.279999, "zone": "ТТК-МКАД", "submarket": "ТТК-МКАД Запад", "biz": "", "on_sale": "", "lat": 55.762586, "lng": 37.531092, "id": 66, "name_orig": "Light City", "lots": 79}, {"name": "Родина Парк", "address": "Москва, ул. Верейская, 12", "developer": "ГК Родина", "status": "Строится", "year": "2028", "start": "Q1 2025", "cls": "A", "gba": 24000.0, "gla": null, "volume": 3581.0, "price": 470016.4794750069, "weight": 1683129012.9999998, "zone": "ТТК-МКАД", "submarket": "ТТК-МКАД Запад", "biz": "", "on_sale": "", "lat": 55.712818, "lng": 37.440891, "id": 67, "name_orig": "Родина Парк", "lots": 20}, {"name": "Рублево Бизнес-Парк", "address": "Липовой Рощи ул., д. 1", "developer": "Пионер-М (РБ-парк)", "status": "Строится", "year": "2025", "start": "", "cls": "A", "gba": 62000.0, "gla": null, "volume": 4824.9, "price": 319359.69223403593, "weight": 1540878579.06, "zone": "за МКАД", "submarket": "за МКАД", "biz": "", "on_sale": "", "lat": 55.800797, "lng": 37.381693, "id": 42, "name_orig": "Рублево Бизнес-Парк", "lots": 37}, {"name": "Эйлер", "address": "Береговой проезд, 18", "developer": "Сумма элементов", "status": "Строится", "year": "2024", "start": "", "cls": "A", "gba": 7299.0, "gla": null, "volume": 365.05, "price": 350000.0, "weight": 127767500.0, "zone": "ТТК-МКАД", "submarket": "ТТК-МКАД Запад", "biz": "", "on_sale": "", "lat": 55.754487, "lng": 37.503217, "id": 43, "name_orig": "Эйлер", "lots": 1}, {"name": "Plaza Technopark", "address": "г. Москва, Даниловский р-н, Андропова пр-кт, влд 10", "developer": "ГК Пионер", "status": "Построен", "year": "2021", "start": "", "cls": "A", "gba": 24700.0, "gla": null, "volume": 0.0, "price": 0.0, "weight": 0.0, "zone": "ТТК-МКАД", "submarket": "ТТК-МКАД Юг", "biz": "", "on_sale": "", "lat": 55.694057, "lng": 37.66506, "id": 13, "name_orig": "Plaza Technopark", "lots": 0}, {"name": "Slava", "address": "1-я ул. Ямского Поля, 8, стр. 1", "developer": "MR Group", "status": "Строится", "year": "2025", "start": "", "cls": "A", "gba": 112000.0, "gla": null, "volume": 0.0, "price": 0.0, "weight": 0.0, "zone": "СК-ТТК", "submarket": "ТТК Север", "biz": "", "on_sale": "", "lat": 55.779317, "lng": 37.583095, "id": 16, "name_orig": "Slava", "lots": 0}, {"name": "STONE Белорусская", "address": "1-я улица Ямского Поля, вл. 30", "developer": "STONE", "status": "Строится", "year": "2027", "start": "", "cls": "A", "gba": 34500.0, "gla": null, "volume": 0.0, "price": 0.0, "weight": 0.0, "zone": "СК-ТТК", "submarket": "ТТК Север", "biz": "", "on_sale": "", "lat": 55.784779, "lng": 37.585853, "id": 19, "name_orig": "STONE Белорусская", "lots": 0}, {"name": "Алкон 3", "address": "Ленинский пр-т., 34", "developer": "Alcon Development", "status": "Построен", "year": "2023", "start": "", "cls": "A", "gba": 14146.4, "gla": null, "volume": 0.0, "price": 0.0, "weight": 0.0, "zone": "СК-ТТК", "submarket": "ТТК Север", "biz": "", "on_sale": "", "lat": 55.785761, "lng": 37.568839, "id": 29, "name_orig": "Алкон 3", "lots": 0}, {"name": "Квартал Lucky", "address": "2-ая Звенигородская ул., д. 12", "developer": "Vesper", "status": "Построен", "year": "2023", "start": "", "cls": "A", "gba": 34067.0, "gla": null, "volume": 0.0, "price": 0.0, "weight": 0.0, "zone": "СК-ТТК", "submarket": "ТТК Запад", "biz": "", "on_sale": "", "lat": 55.762875, "lng": 37.556909, "id": 34, "name_orig": "Квартал Lucky", "lots": 0}, {"name": "Королев (Рассвет)", "address": "Столярный пер., 3 корп. 1", "developer": "KR Properties", "status": "Строится", "year": "2025", "start": "", "cls": "A", "gba": 9687.79, "gla": null, "volume": 0.0, "price": 0.0, "weight": 0.0, "zone": "СК-ТТК", "submarket": "", "biz": "", "on_sale": "", "lat": 55.76324, "lng": 37.569135, "id": 35, "name_orig": "Королев (Рассвет)", "lots": 0}, {"name": "Орбитал", "address": "3-Я МАГИСТРАЛЬНАЯ УЛИЦА, 10", "developer": "Ультима Девелопмент", "status": "Построен", "year": "2023", "start": "", "cls": "A", "gba": 27271.0, "gla": null, "volume": 0.0, "price": 0.0, "weight": 0.0, "zone": "ТТК-МКАД", "submarket": "ТТК-Мкад Запад", "biz": "", "on_sale": "", "lat": 55.762961, "lng": 37.523115, "id": 37, "name_orig": "Орбитал", "lots": 0}, {"name": "Парк Легенд класс А", "address": "г. Москва, Даниловский р-н, ул. Автозаводская, д. 23А", "developer": "Автотех/УК ФИН-Партнер", "status": "Построен", "year": "2023", "start": "", "cls": "A", "gba": 43320.0, "gla": null, "volume": 0.0, "price": 0.0, "weight": 0.0, "zone": "ТТК-МКАД", "submarket": "ТТК-Мкад Юг", "biz": "", "on_sale": "", "lat": 55.689695, "lng": 37.633868, "id": 39, "name_orig": "Парк Легенд класс А", "lots": 0}, {"name": "Парк Легенд класс В+", "address": "г. Москва, Даниловский р-н, Автозаводская ул., д. 23, стр. 120", "developer": "Автотех/УК ФИН-Партнер", "status": "Построен", "year": "2023", "start": "", "cls": "B+", "gba": 48000.0, "gla": null, "volume": 0.0, "price": 0.0, "weight": 0.0, "zone": "ТТК-МКАД", "submarket": "ТТК-Мкад Юг", "biz": "", "on_sale": "", "lat": 55.700174, "lng": 37.642548, "id": 40, "name_orig": "Парк Легенд класс В+", "lots": 0}, {"name": "Прайм Тайм", "address": "Викторенко ул., д. 11", "developer": "Атлантик", "status": "Построен", "year": "2022", "start": "", "cls": "B+", "gba": 12929.0, "gla": null, "volume": 0.0, "price": 0.0, "weight": 0.0, "zone": "ТТК-МКАД", "submarket": "ТТК-Мкад Северо-Запад", "biz": "", "on_sale": "", "lat": 55.795444, "lng": 37.526905, "id": 41, "name_orig": "Прайм Тайм", "lots": 0}, {"name": "West Pier", "address": "904", "developer": "5944", "status": "357080000", "year": "395000", "start": "Q1 2025", "cls": "", "gba": null, "gla": null, "volume": null, "price": 1.0, "weight": null, "zone": "", "submarket": "", "biz": "", "on_sale": "", "lat": 55.761284, "lng": 37.518892, "id": 61, "name_orig": "West Pier", "lots": 2}]