[{"name": "Ahead", "address": "Василисы Кожиной, 25/1", "developer": "Восход", "status": "Строится", "year": "2024", "start": "", "cls": "A", "gba": 10481.4, "gla": null, "volume": 10677.0, "price": 400000.0, "weight": 4270800000.0, "zone": "ТТК-МКАД", "submarket": "ТТК-Мкад Запад", "biz": "", "on_sale": "", "lat": 55.734238, "lng": 37.493326, "id": 1, "name_orig": "Ahead", "lots": 2}, {"name": "Fili Centre", "address": "Промышленный проезд, вл. 5", "developer": "н/д", "status": "Строится", "year": "2024", "start": "", "cls": "A", "gba": 25749.4, "gla": null, "volume": 25749.0, "price": 420000.0, "weight": 10814580000.0, "zone": "ТТК-МКАД", "submarket": "ТТК-Мкад Запад", "biz": "", "on_sale": "", "lat": 55.741059, "lng": 37.509505, "id": 2, "name_orig": "Fili Centre", "lots": 2}, {"name": "Fly Tower", "address": "Ленинградский пр-т, 37 корп. 3", "developer": "KR Properties", "status": "Строится", "year": "", "start": "", "cls": "A", "gba": 30000.0, "gla": null, "volume": null, "price": null, "weight": null, "zone": "ТТК-МКАД", "submarket": "ТТК-Мкад Северо-Запад", "biz": "", "on_sale": "", "lat": 55.793075, "lng": 37.541796, "id": 3, "name_orig": "Fly Tower", "lots": 0}, {"name": "Geolog 2", "address": "Обручева ул., вл. 23", "developer": "Hutton", "status": "Строится", "year": "2026", "start": "", "cls": "A", "gba": 17718.0, "gla": null, "volume": 6105.6, "price": 327313.43356918235, "weight": 1998444899.9999998, "zone": "ТТК-МКАД", "submarket": "", "biz": "", "on_sale": "", "lat": 55.657377, "lng": 37.530139, "id": 4, "name_orig": "Geolog 2", "lots": 37}, {"name": "iCITY", "address": "г. Москва, Пресненский р-н, проезд Шмитовский, д. 37, стр 1", "developer": "MR Group", "status": "Строится", "year": "2024", "start": "", "cls": "A", "gba": 135883.0, "gla": null, "volume": 29334.459999999995, "price": 661796.2481975126, "weight": 19413435570.9, "zone": "ТТК-МКАД", "submarket": "ТТК-Мкад Запад", "biz": "", "on_sale": "", "lat": 55.753661, "lng": 37.530786, "id": 5, "name_orig": "iCITY", "lots": 39}, {"name": "Lakes", "address": "ул. Озерная, д. 42", "developer": "Forma", "status": "Строится", "year": "2025", "start": "", "cls": "B+", "gba": 18951.0, "gla": null, "volume": 2125.1899999999996, "price": 246363.12517939578, "weight": 523568450.0, "zone": "", "submarket": "", "biz": "", "on_sale": "", "lat": 55.760322, "lng": 37.579825, "id": 6, "name_orig": "Lakes", "lots": 16}, {"name": "Level Воронцовская", "address": "ул. Академика Семинихина, вл. 2", "developer": "Level", "status": "Строится", "year": "2026", "start": "", "cls": "B+", "gba": 26650.0, "gla": null, "volume": 2865.2, "price": 313949.5822630183, "weight": 899528343.0999999, "zone": "", "submarket": "", "biz": "", "on_sale": "", "lat": 55.660435, "lng": 37.535628, "id": 7, "name_orig": "Level Воронцовская", "lots": 21}, {"name": "Lunar", "address": "Ленинский пр-кт, 38", "developer": "Hutton", "status": "Строится", "year": "2023", "start": "", "cls": "A", "gba": 9948.0, "gla": null, "volume": 3272.8300000000004, "price": 525382.894925798, "weight": 1719488899.9999998, "zone": "ТТК-МКАД", "submarket": "ТТК-Мкад Юго-Запад", "biz": "", "on_sale": "", "lat": 55.704423, "lng": 37.572207, "id": 8, "name_orig": "Lunar", "lots": 18}, {"name": "Nevsky Plaza", "address": "Выборгская, д. 18", "developer": "Крост", "status": "Строится", "year": "2027", "start": "", "cls": "B+", "gba": 15000.0, "gla": null, "volume": 5597.399999999999, "price": 306377.87186908216, "weight": 1714919500.0, "zone": "", "submarket": "", "biz": "", "on_sale": "", "lat": 55.834522, "lng": 37.49683, "id": 9, "name_orig": "Nevsky Plaza", "lots": 67}, {"name": "Nice Tower", "address": "", "developer": "Coldy", "status": "Строится", "year": "2026", "start": "", "cls": "A", "gba": 25000.0, "gla": null, "volume": 4395.390000000002, "price": 292288.05634994834, "weight": 1284720000.0, "zone": "", "submarket": "", "biz": "", "on_sale": "", "lat": 55.729716, "lng": 37.694423, "id": 10, "name_orig": "Nice Tower", "lots": 57}, {"name": "Opus", "address": "Дербеневская ул.", "developer": "ГК Пионер", "status": "Строится", "year": "2026", "start": "", "cls": "А", "gba": 27569.0, "gla": null, "volume": 7647.200000000002, "price": 471495.54843602877, "weight": 3605620758.0, "zone": "СК-ТТК", "submarket": "ТТК Юг", "biz": "", "on_sale": "", "lat": 55.721747, "lng": 37.648124, "id": 11, "name_orig": "Opus", "lots": 44}, {"name": "Plaza Botanica", "address": "г. Москва, Ростокино р-н, ул. Леонова 1-я, д. 1", "developer": "ГК Пионер", "status": "Строится", "year": "2024", "start": "", "cls": "A", "gba": 28600.0, "gla": null, "volume": 630.1299999999999, "price": 400593.94410677167, "weight": 252426261.99999997, "zone": "ТТК-МКАД", "submarket": "ТТК-Мкад Север", "biz": "", "on_sale": "", "lat": 55.842241, "lng": 37.646363, "id": 12, "name_orig": "Plaza Botanica", "lots": 11}, {"name": "Plaza Technopark", "address": "г. Москва, Даниловский р-н, Андропова пр-кт, влд 10", "developer": "ГК Пионер", "status": "Построен", "year": "2021", "start": "", "cls": "A", "gba": 24700.0, "gla": null, "volume": null, "price": null, "weight": null, "zone": "ТТК-МКАД", "submarket": "ТТК-Мкад Юг", "biz": "", "on_sale": "", "lat": 55.694057, "lng": 37.66506, "id": 13, "name_orig": "Plaza Technopark", "lots": 0}, {"name": "Porta Forma", "address": "Заречная ул. 2/1", "developer": "Forma", "status": "Строится", "year": "2025", "start": "", "cls": "A", "gba": 15680.0, "gla": null, "volume": 3161.42, "price": 555051.8092281317, "weight": 1754751890.73, "zone": "ТТК-МКАД", "submarket": "ТТК-Мкад Запад", "biz": "", "on_sale": "", "lat": 55.747221, "lng": 37.518821, "id": 14, "name_orig": "Porta Forma", "lots": 12}, {"name": "QOOB", "address": "Алексея Свиридовая ул., вл. 17", "developer": "Dominanta", "status": "Строится", "year": "2025", "start": "", "cls": "A", "gba": 21450.0, "gla": null, "volume": 12800.700000000003, "price": 365246.3146546672, "weight": 4675408500.0, "zone": "ТТК-МКАД", "submarket": "", "biz": "", "on_sale": "", "lat": 55.726442, "lng": 37.451638, "id": 15, "name_orig": "QOOB", "lots": 23}, {"name": "Slava", "address": "1-я ул. Ямского Поля, 8, стр. 1", "developer": "MR Group", "status": "Строится", "year": "2025", "start": "", "cls": "A", "gba": 101500.0, "gla": null, "volume": null, "price": null, "weight": null, "zone": "СК-ТТК", "submarket": "", "biz": "", "on_sale": "", "lat": 55.779317, "lng": 37.583095, "id": 16, "name_orig": "Slava", "lots": 0}, {"name": "STONE Савеловская", "address": "г. Москва, Марьина роща р-н, ул. Двинцев, влд 3", "developer": "STONE", "status": "Строится", "year": "2024", "start": "", "cls": "A", "gba": 78000.0, "gla": null, "volume": 20336.300000000003, "price": 376514.7839085772, "weight": 7656917600.0, "zone": "ТТК-МКАД", "submarket": "ТТК-Мкад Север", "biz": "", "on_sale": "", "lat": 55.79718, "lng": 37.595421, "id": 17, "name_orig": "STONE Cавеловская", "lots": 0}, {"name": "Stone Towers", "address": "г. Москва, Беговой р-н, проезд Бумажный, д. 19", "developer": "STONE", "status": "Строится/Построен", "year": "2022-2024", "start": "", "cls": "A", "gba": 92300.0, "gla": null, "volume": 5468.0, "price": 467625.5120702268, "weight": 2556976300.0, "zone": "СК-ТТК", "submarket": "ТТК Север", "biz": "", "on_sale": "", "lat": 55.789775, "lng": 37.586033, "id": 18, "name_orig": "STONE Towers", "lots": 11}, {"name": "STONE Белорусская", "address": "1-я улица Ямского Поля, вл. 30", "developer": "STONE", "status": "Строится", "year": "2023", "start": "", "cls": "A", "gba": 34500.0, "gla": null, "volume": null, "price": null, "weight": null, "zone": "СК-ТТК", "submarket": "ТТК Север", "biz": "", "on_sale": "", "lat": 55.784779, "lng": 37.585853, "id": 19, "name_orig": "STONE Белорусская", "lots": 0}, {"name": "STONE Дмитровская", "address": "г. Москва, Дмитровский проезд, вл. 1г", "developer": "STONE", "status": "Строится", "year": "2026", "start": "", "cls": "A", "gba": 49000.0, "gla": null, "volume": 18765.4, "price": 348928.5653383354, "weight": 6547784100.0, "zone": "ТТК-МКАД", "submarket": "ТТК-Мкад Север", "biz": "", "on_sale": "", "lat": 55.808417, "lng": 37.57607, "id": 20, "name_orig": "STONE Дмитровская", "lots": 0}, {"name": "STONE Курская", "address": "г. Москва, Таганский р-н, Костомаровский пер, д. 11, стр. 1", "developer": "STONE", "status": "Строится", "year": "2023", "start": "", "cls": "A", "gba": 15600.0, "gla": null, "volume": 15600.0, "price": 340000.0, "weight": 5304000000.0, "zone": "СК-ТТК", "submarket": "ТТК Восток", "biz": "", "on_sale": "", "lat": 55.750586, "lng": 37.666683, "id": 21, "name_orig": "STONE Курская", "lots": 2}, {"name": "STONE Ленинский", "address": "ул. Вавилова, вл. 11, 13а", "developer": "STONE", "status": "Строится", "year": "2025", "start": "", "cls": "А", "gba": 41000.0, "gla": null, "volume": 3348.0, "price": 460940.32258064515, "weight": 1543228200.0, "zone": "ТТК-МКАД", "submarket": "ТТК-Мкад Юго-Запад", "biz": "", "on_sale": "", "lat": 55.703494, "lng": 37.583329, "id": 22, "name_orig": "STONE Ленинский", "lots": 0}, {"name": "Stone Ходынка 1", "address": "Москва, Хорошевский р-н, микрорайон Ходынское Поле", "developer": "STONE", "status": "Строится", "year": "2027", "start": "", "cls": "А", "gba": 70000.0, "gla": null, "volume": 18860.0, "price": 450433.1389183457, "weight": 8495168999.999999, "zone": "ТТК-МКАД", "submarket": "ТТК-МКАД Северо-Запад", "biz": "", "on_sale": "", "lat": 55.790491, "lng": 37.531373, "id": 23, "name_orig": "STONE Ходынка 1", "lots": 49}, {"name": "Stone Ходынка 2", "address": "Москва, Хорошевский р-н, микрорайон Ходынское Поле", "developer": "STONE", "status": "Строится", "year": "2028", "start": "", "cls": "A", "gba": 58000.0, "gla": null, "volume": 13963.0, "price": 471153.5486643271, "weight": 6578717000.0, "zone": "", "submarket": "", "biz": "", "on_sale": "", "lat": 55.789203, "lng": 37.525082, "id": 24, "name_orig": "STONE Ходынка 2", "lots": 52}, {"name": "Taller", "address": "Жуков проезд, 8", "developer": "Coldy", "status": "Строится", "year": "2024", "start": "", "cls": "А", "gba": 34000.0, "gla": null, "volume": 15334.769999999999, "price": 443552.78021358, "weight": 6801779867.4358, "zone": "СК-ТТК", "submarket": "ТТК Юг", "biz": "", "on_sale": "", "lat": 55.722005, "lng": 37.646247, "id": 25, "name_orig": "Taller", "lots": 34}, {"name": "Upside Кунцево (бывший — Kuntsevo Upside)", "address": "Молдавская ул., 1", "developer": "Upside", "status": "Строится", "year": "2027", "start": "", "cls": "A", "gba": 26478.0, "gla": null, "volume": 6078.2, "price": 452512.87631206604, "weight": 2750463764.7999997, "zone": "", "submarket": "", "biz": "", "on_sale": "", "lat": 55.729925, "lng": 37.44321, "id": 26, "name_orig": "Upside Кунцево", "lots": 0}, {"name": "Frame", "address": "ул. Пресненский Вал, 27", "developer": "Forma", "status": "Строится", "year": "2027", "start": "", "cls": "A", "gba": 63915.0, "gla": null, "volume": 8254.44, "price": 510562.49999999994, "weight": 4214407522.5, "zone": "СК-ТТК", "submarket": "ТТК Запад", "biz": "", "on_sale": "", "lat": 55.774281, "lng": 37.575982, "id": 27, "name_orig": "Frame", "lots": 5}, {"name": "А101 Прокшино", "address": "поселение Сосенское, квартал № 35", "developer": "А101", "status": "Строится", "year": "2023", "start": "", "cls": "А", "gba": 142089.0, "gla": null, "volume": 4996.6, "price": 214901.08617860143, "weight": 1073774767.2, "zone": "за МКАД", "submarket": "за МКАД", "biz": "", "on_sale": "", "lat": 55.584639, "lng": 37.441592, "id": 28, "name_orig": "А101 Прокшино", "lots": 0}, {"name": "Алкон 3", "address": "", "developer": "Alcon Development", "status": "Строится", "year": "2023", "start": "", "cls": "A", "gba": 14146.4, "gla": null, "volume": null, "price": null, "weight": null, "zone": "СК-ТТК", "submarket": "ТТК Север", "biz": "", "on_sale": "", "lat": 55.785761, "lng": 37.568839, "id": 29, "name_orig": "Алкон 3", "lots": 0}, {"name": "Берников", "address": "Москва, ул. Николоямская, д. 11, стр 2", "developer": "Karat Holding", "status": "Строится", "year": "2025", "start": "", "cls": "A", "gba": 15927.0, "gla": null, "volume": 15927.0, "price": 345325.54781189177, "weight": 5500000000.0, "zone": "БК-СК", "submarket": "БК-СК Восток", "biz": "", "on_sale": "", "lat": 55.748194, "lng": 37.651268, "id": 30, "name_orig": "Берников", "lots": 2}, {"name": "БЦ Twist", "address": "Бутырская ул., 1", "developer": "Sminex", "status": "Строится", "year": "2026", "start": "", "cls": "A", "gba": 19134.0, "gla": null, "volume": 4719.0, "price": 513024.1576605213, "weight": 2420961000.0, "zone": "ТТК-МКАД", "submarket": "ТТК-Мкад Север", "biz": "", "on_sale": "", "lat": 55.793278, "lng": 37.585449, "id": 31, "name_orig": "БЦ Twist", "lots": 21}, {"name": "БЦ Серебряный Фонтан", "address": "ул. Новоалексеевская, 16, корпус 5", "developer": "Эталон", "status": "Строится", "year": "2026", "start": "", "cls": "A", "gba": 21403.0, "gla": null, "volume": 16421.0, "price": 316667.6816271847, "weight": 5200000000.0, "zone": "ТТК-МКАД", "submarket": "ТТК-Мкад Восток", "biz": "", "on_sale": "", "lat": 55.809403, "lng": 37.647046, "id": 32, "name_orig": "БЦ Серебряный Фонтан", "lots": 2}, {"name": "Деловой дуэт", "address": "Шумкина, 14", "developer": "АО Мостранссклад", "status": "Строится", "year": "2024", "start": "", "cls": "B+", "gba": 23671.0, "gla": null, "volume": 23671.0, "price": 312000.0, "weight": 7385352000.0, "zone": "", "submarket": "", "biz": "", "on_sale": "", "lat": 55.78932, "lng": 37.666782, "id": 33, "name_orig": "Деловой дуэт", "lots": 2}, {"name": "Квартал Lucky", "address": "2-ая Звенигородская ул., д. 12", "developer": "Vesper", "status": "Строится", "year": "2023", "start": "", "cls": "A", "gba": 34067.0, "gla": null, "volume": null, "price": null, "weight": null, "zone": "СК-ТТК", "submarket": "ТТК Запад", "biz": "", "on_sale": "", "lat": 55.762875, "lng": 37.556909, "id": 34, "name_orig": "Квартал Lucky", "lots": 0}, {"name": "Королев (Рассвет)", "address": "Столярный пер., 3 корп. 1", "developer": "KR Properties", "status": "Строится", "year": "2025", "start": "", "cls": "A", "gba": 9687.79, "gla": null, "volume": null, "price": null, "weight": null, "zone": "СК-ТТК", "submarket": "", "biz": "", "on_sale": "", "lat": 55.76324, "lng": 37.569135, "id": 35, "name_orig": "Королев (Рассвет)", "lots": 0}, {"name": "На Берзарина", "address": "Берзавина ул., вл. 32", "developer": "РГ Девелопмент", "status": "Строится", "year": "2024", "start": "", "cls": "A", "gba": 12000.0, "gla": null, "volume": 12000.0, "price": 350000.0, "weight": 4200000000.0, "zone": "", "submarket": "", "biz": "", "on_sale": "", "lat": 55.789725, "lng": 37.471039, "id": 36, "name_orig": "На берзарина", "lots": 2}, {"name": "Орбитал", "address": "3-Я МАГИСТРАЛЬНАЯ УЛИЦА, 10", "developer": "Ультима Девелопмент", "status": "Строится", "year": "2023", "start": "", "cls": "A", "gba": 27271.0, "gla": null, "volume": null, "price": null, "weight": null, "zone": "ТТК-МКАД", "submarket": "ТТК-Мкад Запад", "biz": "", "on_sale": "", "lat": 55.762961, "lng": 37.523115, "id": 37, "name_orig": "Орбитал", "lots": 0}, {"name": "Останкино", "address": "г. Москва, Бутырский р-н, проезд Огородный, влд 16", "developer": "ГК Пионер", "status": "Строится", "year": "2022-2024", "start": "", "cls": "A", "gba": 99300.0, "gla": null, "volume": 3192.6000000000004, "price": 341434.57714715274, "weight": 1090064031.0, "zone": "ТТК-МКАД", "submarket": "ТТК-Мкад Север", "biz": "", "on_sale": "", "lat": 55.814897, "lng": 37.60098, "id": 38, "name_orig": "Останкино", "lots": 23}, {"name": "Парк Легенд класс А", "address": "г. Москва, Даниловский р-н, ул. Автозаводская, д. 23А", "developer": "Автотех/УК ФИН-Партнер", "status": "Построен", "year": "2023", "start": "", "cls": "A", "gba": 43320.0, "gla": null, "volume": null, "price": null, "weight": null, "zone": "ТТК-МКАД", "submarket": "ТТК-Мкад Юг", "biz": "", "on_sale": "", "lat": 55.689695, "lng": 37.633868, "id": 39, "name_orig": "Парк Легенд класс А", "lots": 0}, {"name": "Парк Легенд класс В+", "address": "г. Москва, Даниловский р-н, Автозаводская ул., д. 23, стр. 120", "developer": "Автотех/УК ФИН-Партнер", "status": "Строится", "year": "2023", "start": "", "cls": "B+", "gba": 48000.0, "gla": null, "volume": null, "price": null, "weight": null, "zone": "ТТК-МКАД", "submarket": "ТТК-Мкад Юг", "biz": "", "on_sale": "", "lat": 55.700174, "lng": 37.642548, "id": 40, "name_orig": "Парк Легенд класс В+", "lots": 0}, {"name": "Прайм Тайм", "address": "Викторенко ул., д. 11", "developer": "Атлантик", "status": "Построен", "year": "2022", "start": "", "cls": "B+", "gba": 12929.0, "gla": null, "volume": null, "price": null, "weight": null, "zone": "ТТК-МКАД", "submarket": "ТТК-Мкад Северо-Запад", "biz": "", "on_sale": "", "lat": 55.795444, "lng": 37.526905, "id": 41, "name_orig": "Прайм Тайм", "lots": 0}, {"name": "Рублево Бизнес-Парк", "address": "Липовой Рощи ул., д. 1", "developer": "Пионер-М (РБ-парк)", "status": "Строится", "year": "2023", "start": "", "cls": "A", "gba": 62000.0, "gla": null, "volume": 3173.13, "price": 225173.99749458735, "weight": 714506366.67, "zone": "за МКАД", "submarket": "за МКАД", "biz": "", "on_sale": "", "lat": 55.798677, "lng": 37.3781, "id": 42, "name_orig": "Рублево Бизнес-Парк", "lots": 0}, {"name": "Эйлер", "address": "Береговой проезд, 18", "developer": "Сумма", "status": "Строится", "year": "2023", "start": "", "cls": "A", "gba": 7299.0, "gla": null, "volume": 648.26, "price": 408786.59796995035, "weight": 265000000.0, "zone": "ТТК-МКАД", "submarket": "ТТК-Мкад Запад", "biz": "", "on_sale": "", "lat": 55.754487, "lng": 37.503217, "id": 43, "name_orig": "Эйлер", "lots": 4}, {"name": "STONE Калужская", "address": "Старокалужское шоссе, 64", "developer": "STONE", "status": "Строится", "year": "2027", "start": "", "cls": "A", "gba": 21000.0, "gla": null, "volume": 19390.0, "price": 330572.15059308923, "weight": 6409794000.0, "zone": "", "submarket": "", "biz": "", "on_sale": "", "lat": 55.65887, "lng": 37.537184, "id": 44, "name_orig": "Stone Калужская", "lots": 107}, {"name": "Бадаевский", "address": "пр-кт Кутузовский, д. 12, строение 6", "developer": "Capital Group", "status": "Строится", "year": "2025", "start": "", "cls": "A", "gba": 14286.0, "gla": null, "volume": 14286.0, "price": 700000.0, "weight": 10000200000.0, "zone": "", "submarket": "", "biz": "", "on_sale": "", "lat": 55.749324, "lng": 37.559631, "id": 45, "name_orig": "Бадаевский", "lots": 3}, {"name": "Башня Власов", "address": "Холодильный пер.,д.3", "developer": "Мангазея", "status": "Строится", "year": "2026", "start": "", "cls": "A", "gba": 14572.800000000001, "gla": null, "volume": 14572.800000000001, "price": 350000.0, "weight": 5100480000.0, "zone": "", "submarket": "", "biz": "", "on_sale": "", "lat": 55.708394, "lng": 37.625397, "id": 46, "name_orig": "Башня Власов", "lots": 2}, {"name": "Башня Рябов", "address": "Холодильный пер.,д.3", "developer": "Мангазея", "status": "Строится", "year": "2026", "start": "", "cls": "A", "gba": 16192.0, "gla": null, "volume": 16192.0, "price": 350000.0, "weight": 5667200000.0, "zone": "", "submarket": "", "biz": "", "on_sale": "", "lat": 55.708945, "lng": 37.626809, "id": 47, "name_orig": "Башня Рябов", "lots": 2}]