[
    {
        "name":  "Speace  Jet Тимура Фрунзе",
        "network":  "Space 1",
        "district":  "",
        "bc":  "Красная Роза",
        "address":  "Тимура Фрунзе, 11с33",
        "vacancy":  187.0,
        "seats":  700.0,
        "rate":  48000.0,
        "lat":  55.734233,
        "lng":  37.587721,
        "id":  76
    },
    {
        "name":  "Speace  Jet Белая площадь",
        "network":  "Space 1",
        "district":  "",
        "bc":  "Белая Площадь",
        "address":  "Лесная улица,5,стр. а-в",
        "vacancy":  84.0,
        "seats":  1000.0,
        "rate":  75000.0,
        "lat":  55.755819,
        "lng":  37.617644,
        "id":  65
    },
    {
        "name":  "Speace  Jet Аркус",
        "network":  "Space 1",
        "district":  "",
        "bc":  "Аркус 3",
        "address":  "Ленинградский проспект 37Ас4",
        "vacancy":  0.0,
        "seats":  761.0,
        "rate":  50000.0,
        "lat":  55.755819,
        "lng":  37.617644,
        "id":  131
    },
    {
        "name":  "Speace  Jet Якиманка",
        "network":  "Space 1",
        "district":  "",
        "bc":  "Большая Якиманка 26",
        "address":  "Большая Якиманка 26",
        "vacancy":  0.0,
        "seats":  450.0,
        "rate":  48000.0,
        "lat":  55.735961,
        "lng":  37.612057,
        "id":  133
    },
    {
        "name":  "Multispace Динамо",
        "network":  "Multispace",
        "district":  "",
        "bc":  "ВТБ Арена стр 8",
        "address":  "Ленинградский проспект,36,корп. 8",
        "vacancy":  0.0,
        "seats":  1244.0,
        "rate":  0.0,
        "lat":  55.789451,
        "lng":  37.568336,
        "id":  154
    },
    {
        "name":  "AFI Gallery 4 эт",
        "network":  "AFI",
        "district":  "",
        "bc":  "",
        "address":  "г. Москва, Тверская Застава пл, д. 3",
        "vacancy":  91.0,
        "seats":  null,
        "rate":  87033.0,
        "lat":  55.775682,
        "lng":  37.581191,
        "id":  39
    },
    {
        "name":  "AFI Gallery 7 эт",
        "network":  "AFI",
        "district":  "",
        "bc":  "",
        "address":  "г. Москва, Тверская Застава пл, д. 3",
        "vacancy":  90.0,
        "seats":  null,
        "rate":  96000.0,
        "lat":  55.775682,
        "lng":  37.581191,
        "id":  40
    },
    {
        "name":  "Multispace Галерея Актер",
        "network":  "Multispace",
        "district":  "",
        "bc":  "",
        "address":  "Тверская ул., 9",
        "vacancy":  420.0,
        "seats":  null,
        "rate":  81000.0,
        "lat":  55.759861,
        "lng":  37.610557,
        "id":  41
    },
    {
        "name":  "СODE Якиманка",
        "network":  "СODE",
        "district":  "",
        "bc":  "Кадашевская наб., 6",
        "address":  "Кадашевская наб 8",
        "vacancy":  0.0,
        "seats":  1600.0,
        "rate":  0.0,
        "lat":  55.742737,
        "lng":  37.617788,
        "id":  145
    },
    {
        "name":  "СODE Савеловская",
        "network":  "СODE",
        "district":  "",
        "bc":  "МФК Савеловский сити",
        "address":  "Новодмитровская улица,2,корп. 2",
        "vacancy":  0.0,
        "seats":  200.0,
        "rate":  30000.0,
        "lat":  55.803788,
        "lng":  37.590964,
        "id":  148
    },
    {
        "name":  "СODE Novo",
        "network":  "СODE",
        "district":  "",
        "bc":  "Долгоруковская 21",
        "address":  "Долгоруковская 21",
        "vacancy":  0.0,
        "seats":  350.0,
        "rate":  0.0,
        "lat":  55.774932,
        "lng":  37.599579,
        "id":  149
    },
    {
        "name":  "СODE Delegat",
        "network":  "СODE",
        "district":  "",
        "bc":  "1-й Щемиловский 16с2",
        "address":  "Долгоруковская 21",
        "vacancy":  600.0,
        "seats":  350.0,
        "rate":  45000.0,
        "lat":  55.779089,
        "lng":  37.607197,
        "id":  78
    },
    {
        "name":  "Атмосфера (Известия)",
        "network":  "Атмосфера",
        "district":  "",
        "bc":  "БЦ Известия",
        "address":  "Тверская ул., 18",
        "vacancy":  0.0,
        "seats":  1300.0,
        "rate":  null,
        "lat":  55.755819,
        "lng":  37.617644,
        "id":  42
    },
    {
        "name":  "Атмосфера (РИО на Ленинском)",
        "network":  "Атмосфера",
        "district":  "",
        "bc":  "ТЦ РИО на Ленинском",
        "address":  "Ленинский пр-т 109",
        "vacancy":  0.0,
        "seats":  300.0,
        "rate":  null,
        "lat":  55.755819,
        "lng":  37.617644,
        "id":  43
    },
    {
        "name":  "Атмосфера (Квартал Вэст)",
        "network":  "Атмосфера",
        "district":  "",
        "bc":  "Квартал Вэст",
        "address":  "Аминьевское шоссе, 6",
        "vacancy":  0.0,
        "seats":  370.0,
        "rate":  42000.0,
        "lat":  55.755819,
        "lng":  37.617644,
        "id":  44
    },
    {
        "name":  "F2",
        "network":  "F2",
        "district":  "",
        "bc":  "DM Tower",
        "address":  "Новоданиловская наб. 10",
        "vacancy":  0.0,
        "seats":  300.0,
        "rate":  43200.0,
        "lat":  55.759912,
        "lng":  37.574516,
        "id":  211
    },
    {
        "name":  "F2",
        "network":  "F2",
        "district":  "",
        "bc":  "Фили Град",
        "address":  "Береговой проезд, 5Ак1",
        "vacancy":  265.0,
        "seats":  400.0,
        "rate":  43200.0,
        "lat":  55.755657,
        "lng":  37.509173,
        "id":  239
    },
    {
        "name":  "F2 - Федерация",
        "network":  "F2",
        "district":  "",
        "bc":  "Федерация (Сити)",
        "address":  "Пресненская набережная, 12",
        "vacancy":  21.0,
        "seats":  260.0,
        "rate":  67000.0,
        "lat":  55.755819,
        "lng":  37.617644,
        "id":  228
    },
    {
        "name":  "KW Павелецкая",
        "network":  "Know Where",
        "district":  "",
        "bc":  "Black\u0026White",
        "address":  "Кожевническая ул. 14",
        "vacancy":  124.0,
        "seats":  638.0,
        "rate":  58800.0,
        "lat":  55.64542,
        "lng":  37.608149,
        "id":  235
    },
    {
        "name":  "KW Балчуг",
        "network":  "Know Where",
        "district":  "",
        "bc":  "Балчуг",
        "address":  "Садовническая наб., 9",
        "vacancy":  115.0,
        "seats":  547.0,
        "rate":  50000.0,
        "lat":  55.747606,
        "lng":  37.625729,
        "id":  233
    },
    {
        "name":  "Рабочая Станция (Парк Горького)",
        "network":  "Рабочая Станция",
        "district":  "",
        "bc":  "Парк Горького",
        "address":  "Ленинский пр-т 30А",
        "vacancy":  0.0,
        "seats":  108.0,
        "rate":  null,
        "lat":  55.729219,
        "lng":  37.600891,
        "id":  213
    },
    {
        "name":  "Регус (Лесная Плаза)",
        "network":  "Регус",
        "district":  "",
        "bc":  "White Stone",
        "address":  "4-й Лесной пер., 4",
        "vacancy":  22.0,
        "seats":  450.0,
        "rate":  88000.0,
        "lat":  55.779069,
        "lng":  37.586931,
        "id":  229
    },
    {
        "name":  "Регус (Ситидел)",
        "network":  "Регус",
        "district":  "",
        "bc":  "Citydel",
        "address":  "Земляной Вал ул., 7",
        "vacancy":  10.0,
        "seats":  500.0,
        "rate":  47500.0,
        "lat":  55.755819,
        "lng":  37.617644,
        "id":  223
    },
    {
        "name":  "Регус (Вивальди)",
        "network":  "Регус",
        "district":  "",
        "bc":  "Вивальди Плаза",
        "address":  "ул. Летниковская, д. 2, стр 1",
        "vacancy":  6.0,
        "seats":  500.0,
        "rate":  71000.0,
        "lat":  55.728626,
        "lng":  37.6448,
        "id":  94
    },
    {
        "name":  "Регус (Домников)",
        "network":  "Регус",
        "district":  "",
        "bc":  "Домников",
        "address":  "Маши Порываевой ул., д. 34",
        "vacancy":  0.0,
        "seats":  450.0,
        "rate":  null,
        "lat":  55.755819,
        "lng":  37.617644,
        "id":  93
    },
    {
        "name":  "Регус (Авион)",
        "network":  "Регус",
        "district":  "",
        "bc":  "Авион",
        "address":  "Ленинградский проспект,47",
        "vacancy":  16.0,
        "seats":  400.0,
        "rate":  43000.0,
        "lat":  55.799907,
        "lng":  37.531316,
        "id":  225
    },
    {
        "name":  "Регус (Капитолий)",
        "network":  "Регус",
        "district":  "",
        "bc":  "Капитолий Вернадского",
        "address":  "Вернадского проспект,6",
        "vacancy":  9.0,
        "seats":  450.0,
        "rate":  58000.0,
        "lat":  55.681701,
        "lng":  37.51538,
        "id":  222
    },
    {
        "name":  "Регус (Гринвуд)",
        "network":  "Регус",
        "district":  "",
        "bc":  "Гринвуд",
        "address":  "72 км МКАД, п/о Путилково, строение 19",
        "vacancy":  0.0,
        "seats":  250.0,
        "rate":  null,
        "lat":  55.078473,
        "lng":  37.764492,
        "id":  215
    },
    {
        "name":  "Signature Столешников",
        "network":  "Signature (Регус)",
        "district":  "",
        "bc":  "Signature Столешников, 11",
        "address":  "Столешников пер., 11",
        "vacancy":  396.0,
        "seats":  null,
        "rate":  110000.0,
        "lat":  55.763432,
        "lng":  37.615857,
        "id":  45
    },
    {
        "name":  "Регус (Пр. Мира, 40)",
        "network":  "Регус",
        "district":  "",
        "bc":  "Проспект Мира, 40",
        "address":  "Мира пр-т, 40",
        "vacancy":  6.0,
        "seats":  null,
        "rate":  58700.0,
        "lat":  55.780233,
        "lng":  37.63376,
        "id":  46
    },
    {
        "name":  "Коворкинг СОЛЬ",
        "network":  "СОЛЬ",
        "district":  "",
        "bc":  "Ролл Холл",
        "address":  "Холодильный пер. 3",
        "vacancy":  110.0,
        "seats":  200.0,
        "rate":  39890.0,
        "lat":  55.708317,
        "lng":  37.625454,
        "id":  232
    },
    {
        "name":  "Smart Yard (на Басманной)",
        "network":  "Smart Yard",
        "district":  "",
        "bc":  "на Басманной",
        "address":  "Бауманская ул. 15",
        "vacancy":  0.0,
        "seats":  490.0,
        "rate":  null,
        "lat":  55.769717,
        "lng":  37.659802,
        "id":  218
    },
    {
        "name":  "Smart Yard (на Волгоградском)",
        "network":  "Smart Yard",
        "district":  "",
        "bc":  "РТС Волгоградский",
        "address":  "Волгоградский проспект, 32к31",
        "vacancy":  518.0,
        "seats":  null,
        "rate":  35000.0,
        "lat":  55.707674,
        "lng":  37.749283,
        "id":  47
    },
    {
        "name":  "Flexity",
        "network":  "Flexity",
        "district":  "",
        "bc":  "Риверсайд Тауэрс",
        "address":  "Космадамианская наб., 52",
        "vacancy":  0.0,
        "seats":  0.0,
        "rate":  null,
        "lat":  55.709033,
        "lng":  37.493183,
        "id":  243
    },
    {
        "name":  "Flexity",
        "network":  "Flexity",
        "district":  "",
        "bc":  "Садовая Плаза",
        "address":  "Долгоруковская ул. 7",
        "vacancy":  0.0,
        "seats":  950.0,
        "rate":  null,
        "lat":  55.840689,
        "lng":  37.515066,
        "id":  246
    },
    {
        "name":  "Flexity",
        "network":  "Flexity",
        "district":  "",
        "bc":  "Павелецкая Плаза (А)",
        "address":  "Павелецкая площадь, 2",
        "vacancy":  287.0,
        "seats":  2700.0,
        "rate":  60000.0,
        "lat":  55.713228,
        "lng":  37.64736,
        "id":  48
    },
    {
        "name":  "Flexity Solo",
        "network":  "Flexity",
        "district":  "",
        "bc":  "Павелецкая Плаза (А)",
        "address":  "Павелецкая площадь, 2",
        "vacancy":  45.0,
        "seats":  2700.0,
        "rate":  78000.0,
        "lat":  55.713228,
        "lng":  37.64736,
        "id":  49
    },
    {
        "name":  "Flexity",
        "network":  "Flexity",
        "district":  "",
        "bc":  "Овчинниковский",
        "address":  "Овчинниковская наб., 18",
        "vacancy":  109.0,
        "seats":  2700.0,
        "rate":  70800.0,
        "lat":  55.743578,
        "lng":  37.62996,
        "id":  248
    },
    {
        "name":  "Ключ Остоженка",
        "network":  "Ключ",
        "district":  "",
        "bc":  "Остоженка",
        "address":  "Остоженка, д. 25, стр. 1",
        "vacancy":  0.0,
        "seats":  200.0,
        "rate":  35000.0,
        "lat":  55.740867,
        "lng":  37.598061,
        "id":  105
    },
    {
        "name":  "Ключ на Кузнецком мосту",
        "network":  "Ключ",
        "district":  "",
        "bc":  "КМ19",
        "address":  "Кузнецкий Мост ул., 19",
        "vacancy":  120.0,
        "seats":  146.0,
        "rate":  40000.0,
        "lat":  55.762308,
        "lng":  37.625837,
        "id":  114
    },
    {
        "name":  "Ключ Арма",
        "network":  "Ключ",
        "district":  "",
        "bc":  "Арма",
        "address":  "Сусальный Нижний пер., 5 стр. 4",
        "vacancy":  0.0,
        "seats":  200.0,
        "rate":  30000.0,
        "lat":  55.755819,
        "lng":  37.617644,
        "id":  107
    },
    {
        "name":  "Ключ Сретенка",
        "network":  "Ключ",
        "district":  "",
        "bc":  "Сретенка",
        "address":  "Сретенский бульвар, 5",
        "vacancy":  0.0,
        "seats":  200.0,
        "rate":  32000.0,
        "lat":  55.769656,
        "lng":  37.632269,
        "id":  50
    },
    {
        "name":  "SOK",
        "network":  "SOK",
        "district":  "",
        "bc":  "SOK Сити (3 и 4 этаж)",
        "address":  "Пресненская наб., 12",
        "vacancy":  900.0,
        "seats":  969.0,
        "rate":  41000.0,
        "lat":  55.749633,
        "lng":  37.537434,
        "id":  51
    },
    {
        "name":  "SOK",
        "network":  "SOK",
        "district":  "",
        "bc":  "SOK Арена Парк (Рыбаков Тауэр)",
        "address":  "Ленинградский пр-т, вл. 36 стр. 11",
        "vacancy":  47.0,
        "seats":  900.0,
        "rate":  50000.0,
        "lat":  55.789451,
        "lng":  37.568336,
        "id":  52
    },
    {
        "name":  "SOK",
        "network":  "SOK",
        "district":  "",
        "bc":  "SOK Арена Парк 2",
        "address":  "Ленинградский пр-т, вл. 36",
        "vacancy":  0.0,
        "seats":  1000.0,
        "rate":  0.0,
        "lat":  55.787857,
        "lng":  37.564841,
        "id":  53
    },
    {
        "name":  "SOK",
        "network":  "SOK",
        "district":  "",
        "bc":  "SOK Сады Пекина",
        "address":  "Садовая Большая ул., 5 корп. 1-2",
        "vacancy":  470.0,
        "seats":  515.0,
        "rate":  50000.0,
        "lat":  55.768942,
        "lng":  37.592339,
        "id":  54
    },
    {
        "name":  "SOK",
        "network":  "SOK",
        "district":  "",
        "bc":  "SOK Земляной Вал",
        "address":  "Земляной Вал ул., 8",
        "vacancy":  75.0,
        "seats":  384.0,
        "rate":  42000.0,
        "lat":  55.753301,
        "lng":  37.656272,
        "id":  55
    },
    {
        "name":  "Space 1",
        "network":  "Space 1",
        "district":  "",
        "bc":  "Композиторская",
        "address":  "Композиторская, 17",
        "vacancy":  0.0,
        "seats":  300.0,
        "rate":  37805.0,
        "lat":  55.751447,
        "lng":  37.586571,
        "id":  116
    },
    {
        "name":  "Space 1",
        "network":  "Space 1",
        "district":  "",
        "bc":  "Балчуг",
        "address":  "Садовническая, 9",
        "vacancy":  0.0,
        "seats":  1500.0,
        "rate":  70000.0,
        "lat":  55.747606,
        "lng":  37.625729,
        "id":  74
    },
    {
        "name":  "Space 1",
        "network":  "Space 1",
        "district":  "",
        "bc":  "Меркурий",
        "address":  "1-й Красногвардейский пр-д, 15",
        "vacancy":  71.0,
        "seats":  550.0,
        "rate":  42500.0,
        "lat":  55.75051,
        "lng":  37.539455,
        "id":  125
    },
    {
        "name":  "Space 1",
        "network":  "Space 1",
        "district":  "",
        "bc":  "Арбат",
        "address":  "Арбат ул., 10",
        "vacancy":  664.0,
        "seats":  654.0,
        "rate":  48150.0,
        "lat":  55.749491,
        "lng":  37.591512,
        "id":  130
    },
    {
        "name":  "Space 1",
        "network":  "Space 1",
        "district":  "",
        "bc":  "Фабрика Станиславского",
        "address":  "Станиславского 21",
        "vacancy":  100.0,
        "seats":  111.0,
        "rate":  41400.0,
        "lat":  55.745443,
        "lng":  37.663117,
        "id":  127
    },
    {
        "name":  "Space 1",
        "network":  "Space 1",
        "district":  "",
        "bc":  "Лужники",
        "address":  "Лкжнецкая набережная",
        "vacancy":  0.0,
        "seats":  320.0,
        "rate":  42000.0,
        "lat":  55.71913,
        "lng":  37.557834,
        "id":  56
    },
    {
        "name":  "Meeting point",
        "network":  "Meeting point",
        "district":  "",
        "bc":  "Даниловская Мануфактура",
        "address":  "Варшавское шоссе, 9",
        "vacancy":  0.0,
        "seats":  500.0,
        "rate":  23140.0,
        "lat":  55.708668,
        "lng":  37.635628,
        "id":  118
    },
    {
        "name":  "Meeting point",
        "network":  "Meeting point",
        "district":  "",
        "bc":  "Гостиница Москва",
        "address":  "Ул. Охотный ряд, д.2",
        "vacancy":  0.0,
        "seats":  230.0,
        "rate":  40000.0,
        "lat":  55.833769,
        "lng":  37.592887,
        "id":  119
    },
    {
        "name":  "Officeless",
        "network":  "Officeless",
        "district":  "",
        "bc":  "Милютинский",
        "address":  "Милютинский 13с1",
        "vacancy":  0.0,
        "seats":  453.0,
        "rate":  35000.0,
        "lat":  55.763645,
        "lng":  37.632044,
        "id":  121
    },
    {
        "name":  "Officeless",
        "network":  "Officeless",
        "district":  "",
        "bc":  "Полянка",
        "address":  "Малая Полянка, 3",
        "vacancy":  0.0,
        "seats":  1043.0,
        "rate":  39600.0,
        "lat":  55.736194,
        "lng":  37.619405,
        "id":  123
    },
    {
        "name":  "Apollax Space",
        "network":  "Apollax Space",
        "district":  "",
        "bc":  "Цветной бульвар",
        "address":  "Цветной бульвар, 30с1",
        "vacancy":  66.0,
        "seats":  337.0,
        "rate":  55000.0,
        "lat":  55.770476,
        "lng":  37.622217,
        "id":  187
    },
    {
        "name":  "Apollax Space",
        "network":  "Apollax Space",
        "district":  "",
        "bc":  "Бригантина",
        "address":  "Новолесная, 2",
        "vacancy":  140.0,
        "seats":  418.0,
        "rate":  55000.0,
        "lat":  55.781737,
        "lng":  37.592384,
        "id":  191
    },
    {
        "name":  "Apollax Space",
        "network":  "Apollax Space",
        "district":  "",
        "bc":  "Империя",
        "address":  "Пресненская набережная, 6с2",
        "vacancy":  0.0,
        "seats":  323.0,
        "rate":  75000.0,
        "lat":  55.748154,
        "lng":  37.540236,
        "id":  179
    },
    {
        "name":  "Apollax Space",
        "network":  "Apollax Space",
        "district":  "",
        "bc":  "Никольская",
        "address":  "Ветошный пер. 13",
        "vacancy":  0.0,
        "seats":  952.0,
        "rate":  65000.0,
        "lat":  55.757192,
        "lng":  37.622522,
        "id":  182
    },
    {
        "name":  "Apollax Space",
        "network":  "Apollax Space",
        "district":  "",
        "bc":  "Технопарк",
        "address":  "Проспект Андропова, 10",
        "vacancy":  156.0,
        "seats":  null,
        "rate":  55000.0,
        "lat":  55.693931,
        "lng":  37.664428,
        "id":  58
    },
    {
        "name":  "Apollax Space",
        "network":  "Apollax Space",
        "district":  "",
        "bc":  "Федерация (Сити)",
        "address":  "Пресненская наб. 12, башня Федерация, 18 этаж",
        "vacancy":  0.0,
        "seats":  334.0,
        "rate":  0.0,
        "lat":  55.755819,
        "lng":  37.617644,
        "id":  183
    },
    {
        "name":  "Apollax Space",
        "network":  "Apollax Space",
        "district":  "",
        "bc":  "Останкино",
        "address":  "Огородный пр., 16/1с2",
        "vacancy":  68.0,
        "seats":  null,
        "rate":  50000.0,
        "lat":  55.814897,
        "lng":  37.60098,
        "id":  59
    },
    {
        "name":  "Apollax Space",
        "network":  "Apollax Space",
        "district":  "",
        "bc":  "Новосущевский",
        "address":  "ул. Сущёвский Вал, 18",
        "vacancy":  37.0,
        "seats":  null,
        "rate":  50000.0,
        "lat":  55.789851,
        "lng":  37.606972,
        "id":  60
    },
    {
        "name":  "Apollax Space",
        "network":  "Apollax Space",
        "district":  "",
        "bc":  "Новослободская",
        "address":  "Новослободская ул., 16",
        "vacancy":  853.0,
        "seats":  null,
        "rate":  68154.75,
        "lat":  55.785787,
        "lng":  37.594917,
        "id":  61
    },
    {
        "name":  "Workki Зубовский",
        "network":  "Workki",
        "district":  "",
        "bc":  "Зубовский 17",
        "address":  "Зубовский б-р 17 стр.1",
        "vacancy":  0.0,
        "seats":  851.0,
        "rate":  33000.0,
        "lat":  55.736311,
        "lng":  37.590497,
        "id":  199
    },
    {
        "name":  "Workki Тульский",
        "network":  "Workki",
        "district":  "",
        "bc":  "На Тульской",
        "address":  "Б. Тульская стр.19",
        "vacancy":  296.0,
        "seats":  1450.0,
        "rate":  31387.0,
        "lat":  55.706457,
        "lng":  37.617581,
        "id":  210
    },
    {
        "name":  "Workki ФОК",
        "network":  "Workki",
        "district":  "",
        "bc":  "ФОК",
        "address":  "Новорязанская, д.8А",
        "vacancy":  100.0,
        "seats":  461.0,
        "rate":  27500.0,
        "lat":  55.755819,
        "lng":  37.617644,
        "id":  206
    },
    {
        "name":  "Workki Комсомольская",
        "network":  "Workki",
        "district":  "",
        "bc":  "Workki Комсомольская",
        "address":  "Новорязанская, д.8",
        "vacancy":  174.0,
        "seats":  681.0,
        "rate":  37873.0,
        "lat":  55.770968,
        "lng":  37.655589,
        "id":  207
    },
    {
        "name":  "Workki Сити",
        "network":  "Workki",
        "district":  "",
        "bc":  "Федерация (Сити)",
        "address":  "Пресненская наб. 12, башня Федерация, 18 этаж",
        "vacancy":  0.0,
        "seats":  371.0,
        "rate":  41799.0,
        "lat":  55.755819,
        "lng":  37.617644,
        "id":  202
    },
    {
        "name":  "Workki Нео Гео",
        "network":  "Workki",
        "district":  "",
        "bc":  "Нео Гео",
        "address":  "ул. Бутлерова 17",
        "vacancy":  19.0,
        "seats":  430.0,
        "rate":  21000.0,
        "lat":  55.755819,
        "lng":  37.617644,
        "id":  203
    },
    {
        "name":  "Deworkacy Савинский",
        "network":  "Deworkacy",
        "district":  "",
        "bc":  "Deworkacy Савинский",
        "address":  "Саввинский 8 стр.1",
        "vacancy":  4.0,
        "seats":  240.0,
        "rate":  31250.0,
        "lat":  55.734395,
        "lng":  37.566611,
        "id":  178
    },
    {
        "name":  "Практик на Пролетарской",
        "network":  "Практик",
        "district":  "",
        "bc":  "УЛ. ВОРОНЦОВСКАЯ, Д. 49/28",
        "address":  "УЛ. ВОРОНЦОВСКАЯ, Д. 49/28",
        "vacancy":  50.0,
        "seats":  578.0,
        "rate":  42000.0,
        "lat":  55.732808,
        "lng":  37.666531,
        "id":  111
    },
    {
        "name":  "Manufaqtury Поклонка",
        "network":  "Manufaqtury",
        "district":  "",
        "bc":  "Poklonka Place",
        "address":  "г. Москва, ул. Поклонная, д. 3, корп. 1-4",
        "vacancy":  0.0,
        "seats":  843.0,
        "rate":  29000.0,
        "lat":  55.755819,
        "lng":  37.617644,
        "id":  83
    },
    {
        "name":  "Grow up",
        "network":  "Grow up",
        "district":  "",
        "bc":  "GrowUp на Павелецкой",
        "address":  "ул. Дубининская, д.53, строение 5",
        "vacancy":  0.0,
        "seats":  174.0,
        "rate":  23000.0,
        "lat":  55.730781,
        "lng":  37.638512,
        "id":  62
    },
    {
        "name":  "Газетный",
        "network":  "BusinessClub",
        "district":  "",
        "bc":  "Газетный 17",
        "address":  "Газетный пер., 17",
        "vacancy":  181.0,
        "seats":  null,
        "rate":  78000.0,
        "lat":  55.758965,
        "lng":  37.610619,
        "id":  63
    },
    {
        "name":  "Ходынка",
        "network":  "BusinessClub",
        "district":  "",
        "bc":  "Авиаконструктора Микояна",
        "address":  "ул. Авиакоструктора Микояна, д. 1",
        "vacancy":  1426.0,
        "seats":  null,
        "rate":  66000.0,
        "lat":  55.791268,
        "lng":  37.534397,
        "id":  64
    }
]
